country,state,city,station,last_update,latitude,longitude,pollutant_id,pollutant_min,pollutant_max,pollutant_avg
India,Andhra_Pradesh,Anantapur,"Gulzarpet, Anantapur - APPCB","20-05-2025 21:00:00",14.675886,77.593027,NO2,NA,NA,NA
India,Andhra_Pradesh,Chittoor,"Gangineni Cheruvu, Chittoor - APPCB","20-05-2025 21:00:00",13.204880,79.097889,NO2,20,22,21
India,Andhra_Pradesh,Chittoor,"Gangineni Cheruvu, Chittoor - APPCB","20-05-2025 21:00:00",13.204880,79.097889,OZONE,19,34,25
India,Andhra_Pradesh,Kadapa,"Yerramukkapalli, Kadapa - APPCB","20-05-2025 21:00:00",14.465052,78.824187,PM2.5,44,500,142
India,Andhra_Pradesh,Rajamahendravaram,"Anand Kala Kshetram, Rajamahendravaram - APPCB","20-05-2025 21:00:00",16.9872867,81.7363176,PM10,8,50,23
India,Andhra_Pradesh,Tirumala,"Toll Gate, Tirumala - APPCB (Formerly known as Tirumala, Tirupati - APPCB)","20-05-2025 21:00:00",13.67,79.35,NO2,10,19,14
India,Andhra_Pradesh,Tirumala,"Toll Gate, Tirumala - APPCB (Formerly known as Tirumala, Tirupati - APPCB)","20-05-2025 21:00:00",13.67,79.35,OZONE,7,12,9
India,Assam,Guwahati,"Railway Colony, Guwahati - PCBA","20-05-2025 21:00:00",26.181742,91.78063,NO2,3,4,3
India,Assam,Guwahati,"Railway Colony, Guwahati - PCBA","20-05-2025 21:00:00",26.181742,91.78063,CO,20,97,30
India,Assam,Nagaon,"Christianpatty, Nagaon - PCBA","20-05-2025 21:00:00",26.349082,92.68449,SO2,6,15,11
India,Assam,Nagaon,"Christianpatty, Nagaon - PCBA","20-05-2025 21:00:00",26.349082,92.68449,OZONE,16,37,21
India,Assam,Nalbari,"Bata Chowk, Nalbari - PCBA","20-05-2025 21:00:00",26.446912,91.439057,SO2,1,4,2
India,Assam,Silchar,"Tarapur, Silchar - PCBA","20-05-2025 21:00:00",24.82827,92.79525,NO2,10,13,12
India,Assam,Sivasagar,"Girls College, Sivasagar - PCBA","20-05-2025 21:00:00",26.987634,94.636574,PM10,17,46,28
India,Bihar,Buxar,"Charitra Van, Buxar - BSPCB","20-05-2025 21:00:00",25.567520,83.966379,PM10,NA,NA,NA
India,Bihar,Buxar,"Charitra Van, Buxar - BSPCB","20-05-2025 21:00:00",25.567520,83.966379,SO2,3,13,8
India,Bihar,Gaya,"Collectorate, Gaya - BSPCB","20-05-2025 21:00:00",24.7955,84.9994,PM2.5,27,244,84
India,Bihar,Gaya,"Kareemganj, Gaya - BSPCB","20-05-2025 21:00:00",24.792403,84.992416,NO2,3,7,5
India,Bihar,Gaya,"SFTI Kusdihra, Gaya - BSPCB","20-05-2025 21:00:00",24.762518,84.982348,NO2,17,19,18
India,Bihar,Gaya,"SFTI Kusdihra, Gaya - BSPCB","20-05-2025 21:00:00",24.762518,84.982348,SO2,8,10,9
India,Bihar,Hajipur,"Industrial Area, Hajipur - BSPCB","20-05-2025 21:00:00",25.697189,85.245900,PM2.5,37,96,58
India,Bihar,Bettiah,"Kamalnath Nagar, Bettiah - BSPCB","20-05-2025 21:00:00",26.80365,84.51954,NH3,5,6,5
India,Bihar,Bettiah,"Kamalnath Nagar, Bettiah - BSPCB","20-05-2025 21:00:00",26.80365,84.51954,CO,32,105,56
India,Bihar,Bettiah,"Kamalnath Nagar, Bettiah - BSPCB","20-05-2025 21:00:00",26.80365,84.51954,OZONE,16,25,22
India,Bihar,Bhagalpur,"DM Office_Kachari Chowk, Bhagalpur - BSPCB","20-05-2025 21:00:00",25.251013,86.989001,PM10,NA,NA,NA
India,Bihar,Bhagalpur,"Mayaganj, Bhagalpur - BSPCB","20-05-2025 21:00:00",25.265194,87.012947,OZONE,1,11,4
India,Bihar,"Bihar Sharif","D M Colony, Bihar Sharif - BSPCB","20-05-2025 21:00:00",25.204762,85.514960,PM2.5,NA,NA,NA
India,Arunachal_Pradesh,Naharlagun,"Naharlagun, Naharlagun - APSPCB","20-05-2025 21:00:00",27.103358,93.679645,NO2,4,5,5
India,Arunachal_Pradesh,Naharlagun,"Naharlagun, Naharlagun - APSPCB","20-05-2025 21:00:00",27.103358,93.679645,OZONE,4,4,4
India,Assam,Byrnihat,"Central Academy for SFS, Byrnihat - PCBA","20-05-2025 21:00:00",26.071318,91.87488,PM10,NA,NA,NA
India,Assam,Guwahati,"IITG, Guwahati - PCBA","20-05-2025 21:00:00",26.2028636,91.70046436,PM10,9,101,31
India,Assam,Guwahati,"Pan Bazaar, Guwahati - PCBA","20-05-2025 21:00:00",26.187500,91.744194,SO2,25,37,34
India,"Andaman and Nicobar","Sri Vijaya Puram","Police Line, Sri Vijaya Puram - ANPCC","20-05-2025 21:00:00",11.654054,92.734055,NH3,NA,NA,NA
India,"Andaman and Nicobar","Sri Vijaya Puram","Police Line, Sri Vijaya Puram - ANPCC","20-05-2025 21:00:00",11.654054,92.734055,SO2,2,31,17
India,Andhra_Pradesh,Amaravati,"Secretariat, Amaravati - APPCB","20-05-2025 21:00:00",16.5150833,80.5181667,PM10,5,45,23
India,Andhra_Pradesh,Amaravati,"Secretariat, Amaravati - APPCB","20-05-2025 21:00:00",16.5150833,80.5181667,CO,3,130,58
India,Andhra_Pradesh,Anantapur,"Gulzarpet, Anantapur - APPCB","20-05-2025 21:00:00",14.675886,77.593027,PM10,NA,NA,NA
India,Bihar,Arrah,"New DM Office, Arrah - BSPCB","20-05-2025 21:00:00",25.5626095,84.663264,PM2.5,NA,NA,NA
India,Bihar,Aurangabad,"Gurdeo Nagar, Aurangabad - BSPCB","20-05-2025 21:00:00",24.75746,84.366208,PM10,28,125,80
India,Bihar,Aurangabad,"Gurdeo Nagar, Aurangabad - BSPCB","20-05-2025 21:00:00",24.75746,84.366208,SO2,3,15,10
India,Bihar,Begusarai,"Lohiyanagar, Begusarai - BSPCB","20-05-2025 21:00:00",25.42742023,86.13886079,NO2,34,100,84
India,Bihar,Begusarai,"Lohiyanagar, Begusarai - BSPCB","20-05-2025 21:00:00",25.42742023,86.13886079,NH3,11,12,12
India,Andhra_Pradesh,Tirupati,"Vaikuntapuram, Tirupati - APPCB","20-05-2025 21:00:00",13.615387,79.409230,PM10,NA,NA,NA
India,Andhra_Pradesh,Vijayawada,"HB Colony, Vijayawada - APPCB","20-05-2025 21:00:00",16.536107,80.594233,PM10,57,71,63
India,Andhra_Pradesh,Visakhapatnam,"GVM Corporation, Visakhapatnam - APPCB","20-05-2025 21:00:00",17.72,83.3,PM10,23,71,36
India,Andhra_Pradesh,Visakhapatnam,"GVM Corporation, Visakhapatnam - APPCB","20-05-2025 21:00:00",17.72,83.3,OZONE,15,68,38
India,Bihar,"Bihar Sharif","D M Colony, Bihar Sharif - BSPCB","20-05-2025 21:00:00",25.204762,85.514960,OZONE,16,35,25
India,Bihar,Hajipur,"Industrial Area, Hajipur - BSPCB","20-05-2025 21:00:00",25.697189,85.245900,OZONE,49,189,132
India,Bihar,Katihar,"Mirchaibari, Katihar - BSPCB","20-05-2025 21:00:00",25.560083,87.553265,OZONE,3,10,7
India,Bihar,Kishanganj,"SDM Office_Khagra, Kishanganj - BSPCB","20-05-2025 21:00:00",26.0881305,87.93840336,OZONE,15,23,16
India,Bihar,Manguraha,"Forest Rest House, Manguraha - BSPCB","20-05-2025 21:00:00",27.308328,84.531742,PM10,NA,NA,NA
India,Bihar,Manguraha,"Forest Rest House, Manguraha - BSPCB","20-05-2025 21:00:00",27.308328,84.531742,NH3,NA,NA,NA
India,Bihar,Manguraha,"Forest Rest House, Manguraha - BSPCB","20-05-2025 21:00:00",27.308328,84.531742,SO2,NA,NA,NA
India,Bihar,Motihari,"Gandak Colony, Motihari - BSPCB","20-05-2025 21:00:00",26.63086,84.90051,NH3,3,3,3
India,Bihar,Motihari,"Gandak Colony, Motihari - BSPCB","20-05-2025 21:00:00",26.63086,84.90051,OZONE,10,12,11
India,Bihar,Munger,"Town Hall, Munger - BSPCB","20-05-2025 21:00:00",25.376776,86.471523,PM2.5,3,60,27
India,Bihar,Patna,"Govt. High School Shikarpur, Patna - BSPCB","20-05-2025 21:00:00",25.592539,85.227158,NO2,NA,NA,NA
India,Bihar,Patna,"Govt. High School Shikarpur, Patna - BSPCB","20-05-2025 21:00:00",25.592539,85.227158,OZONE,NA,NA,NA
India,Bihar,Patna,"IGSC Planetarium Complex, Patna - BSPCB","20-05-2025 21:00:00",25.610369,85.132568,PM2.5,50,104,75
India,Bihar,Patna,"Muradpur, Patna - BSPCB","20-05-2025 21:00:00",25.619651,85.147382,CO,38,67,51
India,Bihar,Patna,"Rajbansi Nagar, Patna - BSPCB","20-05-2025 21:00:00",25.599486,85.113666,PM2.5,15,62,34
India,Bihar,Patna,"Rajbansi Nagar, Patna - BSPCB","20-05-2025 21:00:00",25.599486,85.113666,PM10,27,82,49
India,Bihar,Patna,"Rajbansi Nagar, Patna - BSPCB","20-05-2025 21:00:00",25.599486,85.113666,NO2,7,26,15
India,Bihar,Patna,"Rajbansi Nagar, Patna - BSPCB","20-05-2025 21:00:00",25.599486,85.113666,SO2,7,8,8
India,Bihar,Patna,"Samanpura, Patna - BSPCB","20-05-2025 21:00:00",25.596727,85.085624,PM10,53,120,85
India,Bihar,Patna,"Samanpura, Patna - BSPCB","20-05-2025 21:00:00",25.596727,85.085624,SO2,1,3,2
India,Chhattisgarh,Bhilai,"Civic Center, Bhilai - Bhilai Steel Plant","20-05-2025 21:00:00",21.185571,81.343175,SO2,9,13,11
India,Chhattisgarh,Bhilai,"Civic Center, Bhilai - Bhilai Steel Plant","20-05-2025 21:00:00",21.185571,81.343175,CO,48,50,49
India,Chhattisgarh,Bhilai,"Hathkhoj, Bhilai - CECB","20-05-2025 21:00:00",21.224231,81.408350,SO2,NA,NA,NA
India,Chhattisgarh,Bhilai,"Hathkhoj, Bhilai - CECB","20-05-2025 21:00:00",21.224231,81.408350,CO,18,32,24
India,Chhattisgarh,Bilaspur,"Mangala, Bilaspur - NTPC","20-05-2025 21:00:00",22.08815,82.13737,PM10,17,111,41
India,Chhattisgarh,Chhal,"Nawapara SECL Colony, Chhal - CECB","20-05-2025 21:00:00",22.118125,83.140608,SO2,7,62,26
India,Chhattisgarh,Chhal,"Nawapara SECL Colony, Chhal - CECB","20-05-2025 21:00:00",22.118125,83.140608,OZONE,6,19,8
India,Bihar,Purnia,"Mariam Nagar, Purnia - BSPCB","20-05-2025 21:00:00",25.366336,87.117468,NH3,3,3,3
India,Bihar,Rajgir,"Dangi Tola, Rajgir - BSPCB","20-05-2025 21:00:00",25.03280,85.41948,NH3,2,3,3
India,Bihar,Rajgir,"Dangi Tola, Rajgir - BSPCB","20-05-2025 21:00:00",25.03280,85.41948,CO,18,36,23
India,Bihar,Saharsa,"Police Line, Saharsa - BSPCB","20-05-2025 21:00:00",25.892357,86.590325,PM2.5,NA,NA,NA
India,Bihar,Saharsa,"Police Line, Saharsa - BSPCB","20-05-2025 21:00:00",25.892357,86.590325,NH3,4,4,4
India,Bihar,Saharsa,"Police Line, Saharsa - BSPCB","20-05-2025 21:00:00",25.892357,86.590325,SO2,2,16,11
India,Bihar,Samastipur,"DM Office_Kasipur, Samastipur - BSPCB","20-05-2025 21:00:00",25.859655,85.77944,NH3,2,2,2
India,Chhattisgarh,Korba,"Urja Nagar, Korba - CECB","20-05-2025 21:00:00",22.348441,82.549611,PM10,56,115,78
India,Chhattisgarh,Korba,"Urja Nagar, Korba - CECB","20-05-2025 21:00:00",22.348441,82.549611,NH3,1,3,2
India,Chhattisgarh,Kunjemura,"OP Jindal School, Kunjemura - CECB","20-05-2025 21:00:00",22.126650,83.483212,SO2,3,9,5
India,Chhattisgarh,Milupara,"Govt. Higher Secondary School, Milupara - CECB","20-05-2025 21:00:00",22.1910172,83.5197009,PM10,NA,NA,NA
India,Chhattisgarh,Raipur,"AIIMS, Raipur - CECB","20-05-2025 21:00:00",21.258815,81.578979,PM2.5,20,49,28
India,Bihar,Munger,"Town Hall, Munger - BSPCB","20-05-2025 21:00:00",25.376776,86.471523,OZONE,3,8,5
India,Bihar,Muzaffarpur,"Buddha Colony, Muzaffarpur - BSPCB","20-05-2025 21:00:00",26.11442,85.39813,PM10,28,45,36
India,Bihar,Muzaffarpur,"MIT-Daudpur Kothi, Muzaffarpur - BSPCB","20-05-2025 21:00:00",26.1403345,85.3650192,SO2,5,8,6
India,Bihar,Patna,"DRM Office Danapur, Patna - BSPCB","20-05-2025 21:00:00",25.586562,85.043586,OZONE,13,20,16
India,Bihar,Siwan,"Chitragupta Nagar, Siwan - BSPCB","20-05-2025 21:00:00",26.2271665,84.3570427,PM10,60,487,251
India,Bihar,Siwan,"Chitragupta Nagar, Siwan - BSPCB","20-05-2025 21:00:00",26.2271665,84.3570427,CO,69,101,86
India,Chhattisgarh,Bhilai,"32Bungalows, Bhilai - CECB","20-05-2025 21:00:00",21.194815,81.314770,CO,9,34,12
India,Chhattisgarh,Bhilai,"32Bungalows, Bhilai - CECB","20-05-2025 21:00:00",21.194815,81.314770,OZONE,16,48,44
India,Chhattisgarh,Bhilai,"32Bungalows, Bhilai - CECB","20-05-2025 21:00:00",21.194815,81.314770,PM2.5,24,46,33
India,Delhi,Delhi,"Jahangirpuri, Delhi - DPCC","20-05-2025 21:00:00",28.732820,77.170633,CO,6,102,37
India,Delhi,Delhi,"Jawaharlal Nehru Stadium, Delhi - DPCC","20-05-2025 21:00:00",28.580280,77.233829,SO2,16,59,25
India,Delhi,Delhi,"Lodhi Road, Delhi - IMD","20-05-2025 21:00:00",28.5918245,77.2273074,CO,38,56,44
India,Delhi,Delhi,"Lodhi Road, Delhi - IMD","20-05-2025 21:00:00",28.5918245,77.2273074,OZONE,30,198,144
India,Delhi,Delhi,"Major Dhyan Chand National Stadium, Delhi - DPCC","20-05-2025 21:00:00",28.611281,77.237738,SO2,6,19,11
India,Delhi,Delhi,"Major Dhyan Chand National Stadium, Delhi - DPCC","20-05-2025 21:00:00",28.611281,77.237738,OZONE,2,180,108
India,Delhi,Delhi,"Bawana, Delhi - DPCC","20-05-2025 21:00:00",28.776200,77.051074,CO,24,68,40
India,Delhi,Delhi,"Burari Crossing, Delhi - IMD","20-05-2025 21:00:00",28.7256504,77.2011573,OZONE,10,83,62
India,Delhi,Delhi,"Chandni Chowk, Delhi - IITM","20-05-2025 21:00:00",28.656756,77.227234,PM2.5,108,247,173
India,Delhi,Delhi,"Chandni Chowk, Delhi - IITM","20-05-2025 21:00:00",28.656756,77.227234,NH3,3,8,5
India,Delhi,Delhi,"DTU, Delhi - CPCB","20-05-2025 21:00:00",28.7500499,77.1112615,NH3,14,17,15
India,Delhi,Delhi,"DTU, Delhi - CPCB","20-05-2025 21:00:00",28.7500499,77.1112615,CO,28,56,38
India,Delhi,Delhi,"Mandir Marg, Delhi - DPCC","20-05-2025 21:00:00",28.636429,77.201067,NH3,7,9,8
India,Delhi,Delhi,"Mandir Marg, Delhi - DPCC","20-05-2025 21:00:00",28.636429,77.201067,OZONE,13,194,152
India,Delhi,Delhi,"Mundka, Delhi - DPCC","20-05-2025 21:00:00",28.684678,77.076574,PM10,185,447,304
India,Delhi,Delhi,"Mundka, Delhi - DPCC","20-05-2025 21:00:00",28.684678,77.076574,SO2,8,16,11
India,Delhi,Delhi,"NSIT Dwarka, Delhi - CPCB","20-05-2025 21:00:00",28.60909,77.0325413,PM10,NA,NA,NA
India,Delhi,Delhi,"Najafgarh, Delhi - DPCC","20-05-2025 21:00:00",28.570173,76.933762,PM10,159,245,195
India,Delhi,Delhi,"Najafgarh, Delhi - DPCC","20-05-2025 21:00:00",28.570173,76.933762,SO2,3,20,12
India,Delhi,Delhi,"Narela, Delhi - DPCC","20-05-2025 21:00:00",28.822836,77.101981,PM2.5,105,302,181
India,Delhi,Delhi,"Narela, Delhi - DPCC","20-05-2025 21:00:00",28.822836,77.101981,PM10,130,300,216
India,Delhi,Delhi,"Narela, Delhi - DPCC","20-05-2025 21:00:00",28.822836,77.101981,NO2,20,71,31
India,Delhi,Delhi,"Narela, Delhi - DPCC","20-05-2025 21:00:00",28.822836,77.101981,NH3,6,10,7
India,Delhi,Delhi,"North Campus, DU, Delhi - IMD","20-05-2025 21:00:00",28.6573814,77.1585447,NO2,9,70,17
India,Chhattisgarh,Raipur,"AIIMS, Raipur - CECB","20-05-2025 21:00:00",21.258815,81.578979,SO2,7,13,8
India,Chhattisgarh,Raipur,"Bhatagaon New ISBT, Raipur - CECB","20-05-2025 21:00:00",21.219665,81.630094,OZONE,6,27,18
India,Chhattisgarh,Raipur,"Krishak Nagar, Raipur - CECB","20-05-2025 21:00:00",21.237755,81.705301,CO,14,25,19
India,Chhattisgarh,Raipur,"Siltara Phase-II, Raipur - CECB","20-05-2025 21:00:00",21.371751,81.664929,NO2,13,27,21
India,Chhattisgarh,Raipur,"Siltara Phase-II, Raipur - CECB","20-05-2025 21:00:00",21.371751,81.664929,CO,10,48,12
India,Delhi,Delhi,"Dwarka-Sector 8, Delhi - DPCC ","20-05-2025 21:00:00",28.5710274,77.0719006,PM10,141,283,213
India,Delhi,Delhi,"Dwarka-Sector 8, Delhi - DPCC ","20-05-2025 21:00:00",28.5710274,77.0719006,OZONE,15,205,148
India,Delhi,Delhi,"IGI Airport (T3), Delhi - IMD","20-05-2025 21:00:00",28.5627763,77.1180053,PM2.5,74,145,98
India,Delhi,Delhi,"IGI Airport (T3), Delhi - IMD","20-05-2025 21:00:00",28.5627763,77.1180053,NO2,27,112,53
India,Delhi,Delhi,"IHBAS, Dilshad Garden, Delhi - CPCB","20-05-2025 21:00:00",28.6811736,77.3025234,PM10,132,187,169
India,Delhi,Delhi,"Alipur, Delhi - DPCC","20-05-2025 21:00:00",28.815329,77.153010,NO2,20,43,29
India,Delhi,Delhi,"Alipur, Delhi - DPCC","20-05-2025 21:00:00",28.815329,77.153010,SO2,18,38,26
India,Delhi,Delhi,"Ashok Vihar, Delhi - DPCC","20-05-2025 21:00:00",28.695381,77.181665,NO2,24,123,44
India,Delhi,Delhi,"Aya Nagar, Delhi - IMD","20-05-2025 21:00:00",28.4706914,77.1099364,CO,18,92,52
India,Delhi,Delhi,"Patparganj, Delhi - DPCC","20-05-2025 21:00:00",28.623763,77.287209,NO2,14,74,29
India,Delhi,Delhi,"Pusa, Delhi - DPCC","20-05-2025 21:00:00",28.639652,77.146275,CO,9,54,26
India,Delhi,Delhi,"Jahangirpuri, Delhi - DPCC","20-05-2025 21:00:00",28.732820,77.170633,NO2,14,74,31
India,Karnataka,Belgaum,"Ramteerth Nagar, Belgaum - KSPCB","20-05-2025 21:00:00",15.888653,74.541751,PM10,NA,NA,NA
India,Karnataka,Belgaum,"Ramteerth Nagar, Belgaum - KSPCB","20-05-2025 21:00:00",15.888653,74.541751,SO2,7,14,11
India,Karnataka,Bengaluru,"BTM Layout, Bengaluru - CPCB","20-05-2025 21:00:00",12.9135218,77.5950804,CO,24,34,29
India,Karnataka,Bengaluru,"BTM Layout, Bengaluru - CPCB","20-05-2025 21:00:00",12.9135218,77.5950804,OZONE,22,23,23
India,Karnataka,Bengaluru,"Bapuji Nagar, Bengaluru - KSPCB","20-05-2025 21:00:00",12.951913,77.539784,NO2,2,91,9
India,Karnataka,Bengaluru,"Bapuji Nagar, Bengaluru - KSPCB","20-05-2025 21:00:00",12.951913,77.539784,SO2,23,59,44
India,Karnataka,Bengaluru,"City Railway Station, Bengaluru - KSPCB","20-05-2025 21:00:00",12.9756843,77.5660749,NO2,36,40,38
India,Karnataka,Bengaluru,"City Railway Station, Bengaluru - KSPCB","20-05-2025 21:00:00",12.9756843,77.5660749,SO2,6,13,10
India,Karnataka,Bengaluru,"City Railway Station, Bengaluru - KSPCB","20-05-2025 21:00:00",12.9756843,77.5660749,CO,48,82,54
India,Karnataka,Bengaluru,"Hebbal, Bengaluru - KSPCB","20-05-2025 21:00:00",13.029152,77.585901,PM10,5,34,19
India,Karnataka,Bengaluru,"Hebbal, Bengaluru - KSPCB","20-05-2025 21:00:00",13.029152,77.585901,SO2,4,11,7
India,Karnataka,Bengaluru,"Hebbal, Bengaluru - KSPCB","20-05-2025 21:00:00",13.029152,77.585901,CO,8,58,30
India,Haryana,Gurugram,"NISE Gwal Pahari, Gurugram - IMD","20-05-2025 21:00:00",28.422681,77.148944,CO,14,74,25
India,Haryana,Panchgaon,"Amity University, Panchgaon - IITM","20-05-2025 21:00:00",28.3153,76.9143,PM2.5,84,207,109
India,Haryana,Panchgaon,"Amity University, Panchgaon - IITM","20-05-2025 21:00:00",28.3153,76.9143,NO2,68,73,71
India,Haryana,Panchgaon,"Amity University, Panchgaon - IITM","20-05-2025 21:00:00",28.3153,76.9143,CO,47,108,64
India,"Himachal Pradesh",Baddi,"HIMUDA Complex Phase-1, Baddi - HPPCB","20-05-2025 21:00:00",30.943887,76.801991,OZONE,72,185,155
India,Jammu_and_Kashmir,Srinagar,"Rajbagh, Srinagar - JKSPCB","20-05-2025 21:00:00",34.066206,74.819820,CO,11,22,15
India,Jharkhand,Jorapokhar,"Tata Stadium, Jorapokhar - JSPCB","20-05-2025 21:00:00",23.707909,86.414670,SO2,NA,NA,NA
India,Delhi,Delhi,"Pusa, Delhi - IMD","20-05-2025 21:00:00",28.636110,77.173332,PM10,103,265,180
India,Delhi,Delhi,"R K Puram, Delhi - DPCC","20-05-2025 21:00:00",28.563262,77.186937,PM10,119,254,183
India,Delhi,Delhi,"Rohini, Delhi - DPCC","20-05-2025 21:00:00",28.732528,77.119920,PM2.5,80,260,137
India,Delhi,Delhi,"Rohini, Delhi - DPCC","20-05-2025 21:00:00",28.732528,77.119920,SO2,5,17,9
India,Delhi,Delhi,"Rohini, Delhi - DPCC","20-05-2025 21:00:00",28.732528,77.119920,CO,40,102,58
India,Delhi,Delhi,"Shadipur, Delhi - CPCB","20-05-2025 21:00:00",28.6514781,77.1473105,PM2.5,64,255,171
India,Delhi,Delhi,"Shadipur, Delhi - CPCB","20-05-2025 21:00:00",28.6514781,77.1473105,NO2,74,111,93
India,Delhi,Delhi,"Shadipur, Delhi - CPCB","20-05-2025 21:00:00",28.6514781,77.1473105,OZONE,10,52,33
India,Gujarat,Gandhinagar,"Sector-10, Gandhinagar - GPCB","20-05-2025 21:00:00",23.221714,72.654328,PM10,33,115,55
India,Gujarat,Gandhinagar,"Sector-10, Gandhinagar - GPCB","20-05-2025 21:00:00",23.221714,72.654328,OZONE,8,59,38
India,Gujarat,Surat,"Science Center, Surat - SMC","20-05-2025 21:00:00",21.170046,72.795405,NO2,13,15,13
India,Gujarat,Vatva,"Phase-4 GIDC, Vatva - GPCB","20-05-2025 21:00:00",22.969611,72.643500,CO,21,29,22
India,Gujarat,Vatva,"Phase-4 GIDC, Vatva - GPCB","20-05-2025 21:00:00",22.969611,72.643500,OZONE,6,59,39
India,Delhi,Delhi,"Wazirpur, Delhi - DPCC","20-05-2025 21:00:00",28.699793,77.165453,PM10,179,415,276
India,Gujarat,Ahmedabad,"Gyaspur, Ahmedabad - IITM","20-05-2025 21:00:00",22.977134,72.553024,PM2.5,56,324,134
India,Gujarat,Ahmedabad,"Gyaspur, Ahmedabad - IITM","20-05-2025 21:00:00",22.977134,72.553024,PM10,62,224,114
India,Gujarat,Ahmedabad,"Gyaspur, Ahmedabad - IITM","20-05-2025 21:00:00",22.977134,72.553024,NH3,1,3,1
India,Gujarat,Ahmedabad,"Gyaspur, Ahmedabad - IITM","20-05-2025 21:00:00",22.977134,72.553024,SO2,2,33,15
India,Gujarat,Ahmedabad,"Sardar Vallabhbhai Patel Stadium, Ahmedabad - IITM","20-05-2025 21:00:00",23.043070,72.562968,NO2,87,176,110
India,Gujarat,Ahmedabad,"Sardar Vallabhbhai Patel Stadium, Ahmedabad - IITM","20-05-2025 21:00:00",23.043070,72.562968,CO,8,97,31
India,Gujarat,Ahmedabad,"Sardar Vallabhbhai Patel Stadium, Ahmedabad - IITM","20-05-2025 21:00:00",23.043070,72.562968,OZONE,4,53,43
India,Gujarat,Ankleshwar,"GIDC, Ankleshwar - GPCB","20-05-2025 21:00:00",21.613267,73.010555,PM2.5,21,65,48
India,Gujarat,Gandhinagar,"GIFT City, Gandhinagar - IITM","20-05-2025 21:00:00",23.163798,72.677768,OZONE,11,77,56
India,Gujarat,Gandhinagar,"IIPHG Lekawada, Gandhinagar - IITM","20-05-2025 21:00:00",23.243639,72.68994,PM2.5,39,122,76
India,Gujarat,Gandhinagar,"IIPHG Lekawada, Gandhinagar - IITM","20-05-2025 21:00:00",23.243639,72.68994,PM10,48,124,91
India,Gujarat,Gandhinagar,"IIPHG Lekawada, Gandhinagar - IITM","20-05-2025 21:00:00",23.243639,72.68994,CO,2,43,18
India,Delhi,Delhi,"Sirifort, Delhi - CPCB","20-05-2025 21:00:00",28.5504249,77.2159377,PM10,132,285,189
India,Delhi,Delhi,"Sonia Vihar, Delhi - DPCC","20-05-2025 21:00:00",28.710508,77.249485,NO2,20,52,29
India,Delhi,Delhi,"Sri Aurobindo Marg, Delhi - DPCC","20-05-2025 21:00:00",28.531346,77.190156,PM2.5,89,199,143
India,Delhi,Delhi,"Sri Aurobindo Marg, Delhi - DPCC","20-05-2025 21:00:00",28.531346,77.190156,SO2,9,13,10
India,Karnataka,Chamarajanagar,"Urban, Chamarajanagar - KSPCB","20-05-2025 21:00:00",11.55358,76.55521,OZONE,14,38,34
India,Karnataka,Chikkaballapur,"Chikkaballapur Rural, Chikkaballapur - KSPCB","20-05-2025 21:00:00",13.428828,77.731418,SO2,10,19,15
India,Karnataka,Chikkaballapur,"Chikkaballapur Rural, Chikkaballapur - KSPCB","20-05-2025 21:00:00",13.428828,77.731418,CO,10,22,17
India,Karnataka,Chikkamagaluru,"Kalyana Nagara, Chikkamagaluru - KSPCB","20-05-2025 21:00:00",13.328028,75.797056,PM10,NA,NA,NA
India,Karnataka,Chikkamagaluru,"Kalyana Nagara, Chikkamagaluru - KSPCB","20-05-2025 21:00:00",13.328028,75.797056,NO2,NA,NA,NA
India,Karnataka,Chikkamagaluru,"Kalyana Nagara, Chikkamagaluru - KSPCB","20-05-2025 21:00:00",13.328028,75.797056,CO,11,136,27
India,Karnataka,Davanagere,"Devaraj Urs Badavane, Davanagere - KSPCB","20-05-2025 21:00:00",14.475800,75.905200,NH3,2,2,2
India,Kerala,Thiruvananthapuram,"Plammoodu, Thiruvananthapuram - Kerala PCB","20-05-2025 21:00:00",8.5149093,76.9435879,NO2,5,21,13
India,Kerala,Thiruvananthapuram,"Plammoodu, Thiruvananthapuram - Kerala PCB","20-05-2025 21:00:00",8.5149093,76.9435879,CO,2,57,15
India,Kerala,Thrissur,"Corporation Ground, Thrissur - Kerala PCB","20-05-2025 21:00:00",10.532400,76.215900,NO2,9,11,10
India,"Madhya Pradesh",Bhopal,"Idgah Hills, Bhopal - MPPCB","20-05-2025 21:00:00",23.264759,77.381568,PM10,60,108,79
India,"Madhya Pradesh",Bhopal,"Idgah Hills, Bhopal - MPPCB","20-05-2025 21:00:00",23.264759,77.381568,CO,22,40,35
India,"Madhya Pradesh",Bhopal,"Paryavaran Parisar, Bhopal - MPPCB","20-05-2025 21:00:00",23.210494,77.425409,PM10,28,69,46
India,Karnataka,Bengaluru,"Hombegowda Nagar, Bengaluru - KSPCB","20-05-2025 21:00:00",12.938539,77.590100,OZONE,2,22,15
India,Karnataka,Bengaluru,"Jayanagar 5th Block, Bengaluru - KSPCB","20-05-2025 21:00:00",12.920984,77.584908,PM2.5,2,500,48
India,Karnataka,Bengaluru,"Jayanagar 5th Block, Bengaluru - KSPCB","20-05-2025 21:00:00",12.920984,77.584908,PM10,3,40,16
India,Karnataka,Bengaluru,"Jigani, Bengaluru - KSPCB","20-05-2025 21:00:00",12.7816279,77.6299145,NH3,5,5,5
India,Karnataka,Bengaluru,"Jigani, Bengaluru - KSPCB","20-05-2025 21:00:00",12.7816279,77.6299145,CO,22,22,22
India,Karnataka,Bengaluru,"Kasturi Nagar, Bengaluru - KSPCB","20-05-2025 21:00:00",13.003872,77.664217,PM2.5,45,64,54
India,Karnataka,Dharwad,"Kalabhavan, Dharwad - KSPCB","20-05-2025 21:00:00",15.459706,75.008381,SO2,1,4,3
India,Karnataka,Kalaburagi,"Lal Bahadur Shastri Nagar, Kalaburagi - KSPCB","20-05-2025 21:00:00",17.321993,76.822628,NO2,12,12,12
India,Karnataka,Kalaburagi,"Mahatma Basaveswar Colony, Kalaburgi - KSPCB","20-05-2025 21:00:00",17.336318,76.847397,SO2,2,6,3
India,Karnataka,Kalaburagi,"Mahatma Basaveswar Colony, Kalaburgi - KSPCB","20-05-2025 21:00:00",17.336318,76.847397,OZONE,1,12,6
India,Karnataka,Koppal,"Diwator Nagar, Koppal - KSPCB","20-05-2025 21:00:00",15.347630,76.181767,PM10,4,14,7
India,Kerala,Eloor,"Udyogamandal, Eloor - Kerala PCB","20-05-2025 21:00:00",10.073232,76.302765,SO2,3,3,3
India,Kerala,Eloor,"Udyogamandal, Eloor - Kerala PCB","20-05-2025 21:00:00",10.073232,76.302765,OZONE,11,16,13
India,Kerala,Kollam,"Polayathode, Kollam - Kerala PCB","20-05-2025 21:00:00",8.8787,76.6073,PM2.5,NA,NA,NA
India,Kerala,Kollam,"Polayathode, Kollam - Kerala PCB","20-05-2025 21:00:00",8.8787,76.6073,NO2,NA,NA,NA
India,Kerala,Kollam,"Polayathode, Kollam - Kerala PCB","20-05-2025 21:00:00",8.8787,76.6073,SO2,NA,NA,NA
India,Kerala,Thiruvananthapuram,"Kariavattom, Thiruvananthapuram - Kerala PCB","20-05-2025 21:00:00",8.563700,76.886500,OZONE,36,37,36
India,Karnataka,Bengaluru,"Peenya, Bengaluru - CPCB","20-05-2025 21:00:00",13.0270199,77.494094,NO2,17,24,20
India,Karnataka,Bengaluru,"Peenya, Bengaluru - CPCB","20-05-2025 21:00:00",13.0270199,77.494094,CO,26,62,40
India,Karnataka,Bengaluru,"RVCE-Mailasandra, Bengaluru - KSPCB","20-05-2025 21:00:00",12.921418,77.502466,PM10,NA,NA,NA
India,Karnataka,Bengaluru,"Shivapura_Peenya, Bengaluru - KSPCB","20-05-2025 21:00:00",13.0246342,77.5080115,NO2,32,33,32
India,Karnataka,Bengaluru,"Shivapura_Peenya, Bengaluru - KSPCB","20-05-2025 21:00:00",13.0246342,77.5080115,CO,34,45,38
India,Karnataka,Madikeri,"Stuart Hill, Madikeri - KSPCB","20-05-2025 21:00:00",12.415911,75.735050,NH3,1,1,1
India,Karnataka,Madikeri,"Stuart Hill, Madikeri - KSPCB","20-05-2025 21:00:00",12.415911,75.735050,CO,10,13,10
India,Karnataka,Mangalore,"Kadri, Mangalore - KSPCB","20-05-2025 21:00:00",12.889250,74.853000,NH3,1,5,1
India,Karnataka,Ramanagara,"Vijay Nagar, Ramanagara - KSPCB","20-05-2025 21:00:00",12.733409,77.298051,PM2.5,2,30,14
India,Karnataka,Shivamogga,"Vinoba Nagara, Shivamogga - KSPCB","20-05-2025 21:00:00",13.940000,75.555917,SO2,1,5,3
India,Karnataka,Shivamogga,"Vinoba Nagara, Shivamogga - KSPCB","20-05-2025 21:00:00",13.940000,75.555917,CO,2,34,25
India,Karnataka,Yadgir,"Collector Office, Yadgir - KSPCB","20-05-2025 21:00:00",16.7602,77.1428,PM2.5,10,29,20
India,Karnataka,Bengaluru,"Hombegowda Nagar, Bengaluru - KSPCB","20-05-2025 21:00:00",12.938539,77.590100,PM2.5,2,16,7
India,Maharashtra,Amravati,"Shri Shivaji Science College, Amaravati - MPCB","20-05-2025 21:00:00",20.939198,77.765701,CO,14,106,22
India,Maharashtra,Aurangabad,"MIDC Chilkalthana, Aurangabad - MPCB","20-05-2025 21:00:00",19.875620,75.387310,NO2,11,59,25
India,Maharashtra,Aurangabad,"MIDC Chilkalthana, Aurangabad - MPCB","20-05-2025 21:00:00",19.875620,75.387310,NH3,2,3,2
India,Maharashtra,Aurangabad,"MIDC Chilkalthana, Aurangabad - MPCB","20-05-2025 21:00:00",19.875620,75.387310,OZONE,1,89,53
India,Maharashtra,Aurangabad,"More Chowk Waluj, Aurangabad - MPCB","20-05-2025 21:00:00",19.8389439,75.244448,OZONE,15,99,57
India,Maharashtra,Aurangabad,"Rachnakar Colony, Aurangabad - MPCB","20-05-2025 21:00:00",19.863756,75.321188,NO2,23,29,26
India,Maharashtra,Aurangabad,"Rachnakar Colony, Aurangabad - MPCB","20-05-2025 21:00:00",19.863756,75.321188,SO2,11,19,15
India,Maharashtra,Badlapur,"Katrap, Badlapur - MPCB","20-05-2025 21:00:00",19.16485,73.23409,NH3,2,5,4
India,Maharashtra,Badlapur,"Katrap, Badlapur - MPCB","20-05-2025 21:00:00",19.16485,73.23409,OZONE,10,75,55
India,Maharashtra,Belapur,"CBD Belapur, Belapur - MPCB","20-05-2025 21:00:00",19.0243902,73.0406721,PM10,47,70,62
India,Maharashtra,Belapur,"CBD Belapur, Belapur - MPCB","20-05-2025 21:00:00",19.0243902,73.0406721,NO2,6,41,13
India,Maharashtra,Bhiwandi,"Gokul Nagar, Bhiwandi - MPCB","20-05-2025 21:00:00",19.309073,73.057223,OZONE,4,99,58
India,Maharashtra,Boisar,"Khaira, Boisar - MPCB","20-05-2025 21:00:00",19.786089,72.757971,PM10,65,87,77
India,Maharashtra,Chandrapur,"MIDC Khutala, Chandrapur - MPCB","20-05-2025 21:00:00",19.9775302,79.2337086,NO2,NA,NA,NA
India,Maharashtra,Chandrapur,"MIDC Khutala, Chandrapur - MPCB","20-05-2025 21:00:00",19.9775302,79.2337086,OZONE,1,127,101
India,Maharashtra,Dhule,"Deopur, Dhule - MPCB","20-05-2025 21:00:00",20.918946,74.776388,NO2,NA,NA,NA
India,"Madhya Pradesh",Jabalpur,"Govindh Bhavan Colony, Jabalpur - JMC","20-05-2025 21:00:00",23.163174,79.973061,NO2,29,49,38
India,"Madhya Pradesh",Jabalpur,"Marhatal, Jabalpur - MPPCB","20-05-2025 21:00:00",23.168606,79.932247,NH3,NA,NA,NA
India,"Madhya Pradesh",Jabalpur,"Marhatal, Jabalpur - MPPCB","20-05-2025 21:00:00",23.168606,79.932247,OZONE,40,75,68
India,"Madhya Pradesh",Jabalpur,"Suhagi, Jabalpur - JMC","20-05-2025 21:00:00",23.218135,79.957770,NO2,47,73,59
India,"Madhya Pradesh",Katni,"Gole Bazar, Katni - MPPCB","20-05-2025 21:00:00",23.50016,80.23284,PM2.5,27,60,42
India,"Madhya Pradesh",Katni,"Gole Bazar, Katni - MPPCB","20-05-2025 21:00:00",23.50016,80.23284,PM10,73,146,100
India,"Madhya Pradesh",Damoh,"Shrivastav Colony, Damoh - MPPCB","20-05-2025 21:00:00",23.81748678,79.446246,SO2,5,18,7
India,"Madhya Pradesh",Dewas,"Bhopal Chauraha, Dewas - MPPCB","20-05-2025 21:00:00",22.9682591,76.064118,PM2.5,NA,NA,NA
India,"Madhya Pradesh",Dewas,"Bhopal Chauraha, Dewas - MPPCB","20-05-2025 21:00:00",22.9682591,76.064118,NH3,NA,NA,NA
India,"Madhya Pradesh",Dewas,"Bhopal Chauraha, Dewas - MPPCB","20-05-2025 21:00:00",22.9682591,76.064118,SO2,NA,NA,NA
India,"Madhya Pradesh",Gwalior,"City Center, Gwalior - MPPCB","20-05-2025 21:00:00",26.203442,78.193251,PM10,53,145,97
India,"Madhya Pradesh",Gwalior,"City Center, Gwalior - MPPCB","20-05-2025 21:00:00",26.203442,78.193251,NO2,7,14,9
India,"Madhya Pradesh",Gwalior,"City Center, Gwalior - MPPCB","20-05-2025 21:00:00",26.203442,78.193251,NH3,1,2,2
India,"Madhya Pradesh",Sagar,"Deen Dayal Nagar, Sagar - MPPCB","20-05-2025 21:00:00",23.8640158,78.80289321,CO,63,84,71
India,Maharashtra,Ahmednagar,"Tarakpur, Ahmednagar - MPCB","20-05-2025 21:00:00",19.10122,74.73339,NH3,3,10,7
India,Maharashtra,Ahmednagar,"Tarakpur, Ahmednagar - MPCB","20-05-2025 21:00:00",19.10122,74.73339,CO,16,91,57
India,Maharashtra,Amravati,"Shivneri Colony, Amravati - MPCB","20-05-2025 21:00:00",20.9402359,77.7895248,PM2.5,45,80,64
India,Maharashtra,Amravati,"Shivneri Colony, Amravati - MPCB","20-05-2025 21:00:00",20.9402359,77.7895248,CO,16,33,27
India,Maharashtra,Dhule,"Deopur, Dhule - MPCB","20-05-2025 21:00:00",20.918946,74.776388,CO,23,52,29
India,Maharashtra,Jalgaon,"Prabhat Colony, Jalgaon - MPCB","20-05-2025 21:00:00",21.001264,75.565602,PM2.5,66,260,126
India,Maharashtra,Jalgaon,"Prabhat Colony, Jalgaon - MPCB","20-05-2025 21:00:00",21.001264,75.565602,PM10,64,148,100
India,Maharashtra,Jalgaon,"Prabhat Colony, Jalgaon - MPCB","20-05-2025 21:00:00",21.001264,75.565602,NO2,NA,NA,NA
India,Maharashtra,Kalyan,"Pimpleshwar Mandir, Kalyan - MPCB","20-05-2025 21:00:00",19.192056,72.9585188,NO2,1,157,31
India,"Madhya Pradesh",Maihar,"Sahilara, Maihar - KJS Cements","20-05-2025 21:00:00",24.2613009,80.7231783,PM10,6,83,30
India,"Madhya Pradesh",Maihar,"Sahilara, Maihar - KJS Cements","20-05-2025 21:00:00",24.2613009,80.7231783,SO2,5,6,6
India,"Madhya Pradesh",Pithampur,"Sector-2 Industrial Area, Pithampur - MPPCB","20-05-2025 21:00:00",22.624758,75.675238,CO,11,26,17
India,"Madhya Pradesh",Indore,"Airport Area, Indore - IMC","20-05-2025 21:00:00",22.7289,75.8076,OZONE,3,6,5
India,"Madhya Pradesh",Indore,"Chhoti Gwaltoli, Indore - MPPCB","20-05-2025 21:00:00",22.4310,75.5213,NO2,49,106,64
India,"Madhya Pradesh",Indore,"Maguda Nagar, Indore - IMC","20-05-2025 21:00:00",22.7524,75.8872,NH3,NA,NA,NA
India,"Madhya Pradesh",Indore,"Maguda Nagar, Indore - IMC","20-05-2025 21:00:00",22.7524,75.8872,SO2,37,43,39
India,Maharashtra,Mumbai,"Kherwadi_Bandra East, Mumbai - MPCB","20-05-2025 21:00:00",19.0632143,72.8456324,CO,15,36,16
India,Maharashtra,Mumbai,"Kherwadi_Bandra East, Mumbai - MPCB","20-05-2025 21:00:00",19.0632143,72.8456324,OZONE,2,27,21
India,Maharashtra,Mumbai,"Khindipada-Bhandup West, Mumbai - IITM","20-05-2025 21:00:00",19.1653323,72.922099,CO,86,100,89
India,Maharashtra,Mumbai,"Kurla, Mumbai - MPCB","20-05-2025 21:00:00",19.0863,72.8888,NH3,1,1,1
India,Maharashtra,Mumbai,"Kurla, Mumbai - MPCB","20-05-2025 21:00:00",19.0863,72.8888,CO,2,6,3
India,Maharashtra,Mumbai,"Malad West, Mumbai - IITM","20-05-2025 21:00:00",19.19709,72.82204,PM10,52,91,73
India,Maharashtra,Mumbai,"Malad West, Mumbai - IITM","20-05-2025 21:00:00",19.19709,72.82204,NO2,18,37,26
India,Maharashtra,Kalyan,"Pimpleshwar Mandir, Kalyan - MPCB","20-05-2025 21:00:00",19.192056,72.9585188,OZONE,1,14,9
India,Maharashtra,Kolhapur,"Sinchan Bhavan, Kolhapur - MPCB","20-05-2025 21:00:00",16.7143745,74.2426398,NO2,NA,NA,NA
India,Maharashtra,Latur,"Sawe Wadi, Latur - MPCB","20-05-2025 21:00:00",18.39963,76.57452,PM2.5,18,58,37
India,Maharashtra,Mahad,"Kamble Tarf Birwadi, Mahad - MPCB","20-05-2025 21:00:00",18.1023399,73.4783687,NO2,5,34,13
India,Maharashtra,Mumbai,"Malad West, Mumbai - IITM","20-05-2025 21:00:00",19.19709,72.82204,OZONE,4,25,16
India,Maharashtra,Mumbai,"Mindspace-Malad West, Mumbai - MPCB","20-05-2025 21:00:00",19.1878657,72.8304069,PM10,39,96,58
India,Maharashtra,Mumbai,"Mindspace-Malad West, Mumbai - MPCB","20-05-2025 21:00:00",19.1878657,72.8304069,OZONE,4,41,18
India,Maharashtra,Mumbai,"Navy Nagar-Colaba, Mumbai - IITM","20-05-2025 21:00:00",18.897756,72.813320,CO,20,28,21
India,Maharashtra,Mumbai,"Bandra Kurla Complex, Mumbai - MPCB","20-05-2025 21:00:00",19.065931,72.862131,CO,10,48,18
India,Maharashtra,Mumbai,"Byculla, Mumbai - BMC","20-05-2025 21:00:00",18.9767,72.8380,PM2.5,11,34,20
India,Maharashtra,Mumbai,"Chakala-Andheri East, Mumbai - IITM","20-05-2025 21:00:00",19.11074,72.86084,PM10,NA,NA,NA
India,Maharashtra,Mumbai,"Chakala-Andheri East, Mumbai - IITM","20-05-2025 21:00:00",19.11074,72.86084,OZONE,30,33,32
India,Maharashtra,Mumbai,"Chhatrapati Shivaji Intl. Airport (T2), Mumbai - MPCB","20-05-2025 21:00:00",19.10078,72.87462,NO2,16,26,21
India,Maharashtra,Mumbai,"Chhatrapati Shivaji Intl. Airport (T2), Mumbai - MPCB","20-05-2025 21:00:00",19.10078,72.87462,SO2,20,21,20
India,Maharashtra,Mahad,"Kamble Tarf Birwadi, Mahad - MPCB","20-05-2025 21:00:00",18.1023399,73.4783687,OZONE,22,64,45
India,Maharashtra,Mira-Bhayandar,"Bhayandar West, Mira-Bhayandar - MPCB","20-05-2025 21:00:00",19.296481,72.840923,CO,8,32,10
India,Maharashtra,Mumbai,"Kandivali West, Mumbai - BMC","20-05-2025 21:00:00",19.215859,72.831718,CO,2,18,6
India,Maharashtra,Mumbai,"Ghatkopar, Mumbai - BMC","20-05-2025 21:00:00",19.083694,72.920967,NO2,10,27,18
India,Maharashtra,Mumbai,"Kandivali East, Mumbai - MPCB","20-05-2025 21:00:00",19.205800,72.868200,NH3,1,1,1
India,Maharashtra,"Navi Mumbai","Tondare-Taloja, Navi Mumbai - MPCB","20-05-2025 21:00:00",19.0630,73.1209,NH3,4,5,4
India,Maharashtra,"Navi Mumbai","Tondare-Taloja, Navi Mumbai - MPCB","20-05-2025 21:00:00",19.0630,73.1209,SO2,1,2,1
India,Maharashtra,"Navi Mumbai","Tondare-Taloja, Navi Mumbai - MPCB","20-05-2025 21:00:00",19.0630,73.1209,CO,20,72,27
India,Maharashtra,Pimpri-Chinchwad,"Gavalinagar, Pimpri Chinchwad - MPCB","20-05-2025 21:00:00",18.63673,73.82487,SO2,1,5,2
India,Maharashtra,Pimpri-Chinchwad,"Park Street Wakad, Pimpri Chinchwad - MPCB","20-05-2025 21:00:00",18.59051,73.77946,SO2,NA,NA,NA
India,Maharashtra,Pimpri-Chinchwad,"Park Street Wakad, Pimpri Chinchwad - MPCB","20-05-2025 21:00:00",18.59051,73.77946,CO,13,55,16
India,Maharashtra,Pimpri-Chinchwad,"Savta Mali Nagar, Pimpri-Chinchwad - IITM","20-05-2025 21:00:00",18.614767,73.799516,OZONE,3,25,7
India,Maharashtra,Pimpri-Chinchwad,"Thergaon, Pimpri Chinchwad - MPCB","20-05-2025 21:00:00",18.616318,73.765797,PM10,NA,NA,NA
India,Maharashtra,Pimpri-Chinchwad,"Thergaon, Pimpri Chinchwad - MPCB","20-05-2025 21:00:00",18.616318,73.765797,NO2,NA,NA,NA
India,Maharashtra,Sangli,"Vijay Nagar, Sangli - MPCB","20-05-2025 21:00:00"," 16.5038",74.3623,CO,16,40,27
India,Maharashtra,Solapur,"Dnyaneshwar Nagar, Solapur - MPCB","20-05-2025 21:00:00",17.6336264,75.9132495,PM2.5,NA,NA,NA
India,Maharashtra,Solapur,"Dnyaneshwar Nagar, Solapur - MPCB","20-05-2025 21:00:00",17.6336264,75.9132495,PM10,NA,NA,NA
India,Maharashtra,Solapur,"Dnyaneshwar Nagar, Solapur - MPCB","20-05-2025 21:00:00",17.6336264,75.9132495,NO2,NA,NA,NA
India,Maharashtra,Solapur,"Dnyaneshwar Nagar, Solapur - MPCB","20-05-2025 21:00:00",17.6336264,75.9132495,NH3,NA,NA,NA
India,Maharashtra,Solapur,"Dnyaneshwar Nagar, Solapur - MPCB","20-05-2025 21:00:00",17.6336264,75.9132495,CO,11,38,25
India,Maharashtra,Solapur,"Ratandeep Housing Society, Solapur - MPCB","20-05-2025 21:00:00",17.65439,75.90649,PM2.5,31,68,49
India,Maharashtra,Solapur,"Ratandeep Housing Society, Solapur - MPCB","20-05-2025 21:00:00",17.65439,75.90649,CO,16,64,39
India,Maharashtra,Solapur,"Solapur, Solapur - MPCB","20-05-2025 21:00:00",17.6599188,75.9063906,PM10,72,72,72
India,Maharashtra,Thane,"Kasarvadavali, Thane - MPCB","20-05-2025 21:00:00",19.26777,72.97182,NO2,11,31,19
India,Maharashtra,Pimpri-Chinchwad,"Thergaon, Pimpri Chinchwad - MPCB","20-05-2025 21:00:00",18.616318,73.765797,SO2,NA,NA,NA
India,Maharashtra,Pune,"Bhosari, Pune - IITM","20-05-2025 21:00:00",18.640051,73.848956,OZONE,2,31,16
India,Maharashtra,Pune,"Bhumkar Nagar, Pune - IITM","20-05-2025 21:00:00",18.605770,73.749976,NO2,18,34,23
India,Maharashtra,Pune,"Bhumkar Nagar, Pune - IITM","20-05-2025 21:00:00",18.605770,73.749976,CO,32,52,36
India,Maharashtra,Pune,"Dhankawadi, Pune - IITM","20-05-2025 21:00:00",18.459883,73.852193,PM10,33,70,49
India,Maharashtra,Pune,"Karve Road, Pune - MPCB","20-05-2025 21:00:00",18.5011743,73.8165527,PM2.5,233,233,233
India,Maharashtra,Pune,"Katraj Dairy, Pune - MPCB","20-05-2025 21:00:00",18.454450,73.854155,NH3,1,4,2
India,Maharashtra,"Navi Mumbai","Kopripada-Vashi, Navi Mumbai - MPCB","20-05-2025 21:00:00",19.090337,73.014232,PM2.5,36,164,47
India,Maharashtra,"Navi Mumbai","Mahape, Navi Mumbai - MPCB","20-05-2025 21:00:00",19.1135051,73.008978,PM10,55,126,88
India,Maharashtra,"Navi Mumbai","Mahape, Navi Mumbai - MPCB","20-05-2025 21:00:00",19.1135051,73.008978,NH3,3,3,3
India,Maharashtra,"Navi Mumbai","Mahape, Navi Mumbai - MPCB","20-05-2025 21:00:00",19.1135051,73.008978,SO2,24,24,24
India,Maharashtra,"Navi Mumbai","Sanpada, Navi Mumbai - MPCB","20-05-2025 21:00:00",19.0575752,73.0151367,NH3,5,8,6
India,Maharashtra,"Navi Mumbai","Sanpada, Navi Mumbai - MPCB","20-05-2025 21:00:00",19.0575752,73.0151367,OZONE,5,29,20
India,Maharashtra,"Navi Mumbai","Sector-2E Kalamboli, Navi Mumbai - MPCB","20-05-2025 21:00:00",19.02579,73.10297,NH3,2,4,3
India,Maharashtra,Mumbai,"Shivaji Nagar, Mumbai - BMC","20-05-2025 21:00:00",19.060498,72.923356,PM10,62,112,87
India,Maharashtra,Mumbai,"Shivaji Nagar, Mumbai - BMC","20-05-2025 21:00:00",19.060498,72.923356,OZONE,1,27,18
India,Maharashtra,Mumbai,"Siddharth Nagar-Worli, Mumbai - IITM","20-05-2025 21:00:00",19.000083,72.813993,PM10,NA,NA,NA
India,Maharashtra,Mumbai,"Sion, Mumbai - MPCB","20-05-2025 21:00:00",19.047000,72.874600,CO,2,2,2
India,Maharashtra,Mumbai,"Vasai West, Mumbai - MPCB","20-05-2025 21:00:00",19.383200,72.820400,PM10,31,140,79
India,Maharashtra,Mumbai,"Vasai West, Mumbai - MPCB","20-05-2025 21:00:00",19.383200,72.820400,NO2,15,81,20
India,Maharashtra,Mumbai,"Vasai West, Mumbai - MPCB","20-05-2025 21:00:00",19.383200,72.820400,SO2,32,50,36
India,Maharashtra,Nashik,"Gangapur Road, Nashik - MPCB","20-05-2025 21:00:00",20.0073285,73.7762427,SO2,2,13,5
India,Maharashtra,Nashik,"Gangapur Road, Nashik - MPCB","20-05-2025 21:00:00",20.0073285,73.7762427,CO,13,16,14
India,Maharashtra,Nashik,"Gangapur Road, Nashik - MPCB","20-05-2025 21:00:00",20.0073285,73.7762427,OZONE,29,60,48
India,Maharashtra,Nashik,"MIDC Ambad, Nashik - MPCB","20-05-2025 21:00:00",19.950220,73.731480,PM2.5,46,197,107
India,Maharashtra,Nashik,"MIDC Ambad, Nashik - MPCB","20-05-2025 21:00:00",19.950220,73.731480,NH3,6,7,6
India,Maharashtra,Nashik,"Pandav Nagari, Nashik - MPCB","20-05-2025 21:00:00",19.9591346,73.7788008,PM2.5,34,59,50
India,Maharashtra,Pune,"Savitribai Phule Pune University, Pune - MPCB","20-05-2025 21:00:00",18.547056,73.826908,SO2,3,6,5
India,Maharashtra,Pune,"Transport Nagar-Nigdi, Pune - IITM","20-05-2025 21:00:00",18.664282,73.763966,NO2,19,128,40
India,Maharashtra,Pune,"Transport Nagar-Nigdi, Pune - IITM","20-05-2025 21:00:00",18.664282,73.763966,OZONE,5,58,44
India,Maharashtra,Nagpur,"Opp GPO Civil Lines, Nagpur - MPCB","20-05-2025 21:00:00",21.152875,79.0517531,PM10,39,110,73
India,Maharashtra,Nagpur,"Ram Nagar, Nagpur - MPCB","20-05-2025 21:00:00",21.143383,79.048912,NO2,6,45,14
India,Maharashtra,Nagpur,"Ambazari, Nagpur - MPCB","20-05-2025 21:00:00",21.121801,79.04952,NH3,1,8,2
India,Maharashtra,Nagpur,"Ambazari, Nagpur - MPCB","20-05-2025 21:00:00",21.121801,79.04952,SO2,3,88,21
India,Maharashtra,Nagpur,"Ambazari, Nagpur - MPCB","20-05-2025 21:00:00",21.121801,79.04952,CO,12,42,28
India,Maharashtra,Thane,"Upvan Fort, Thane - MPCB","20-05-2025 21:00:00",19.222279,72.957979,SO2,1,2,1
India,Maharashtra,Thane,"Upvan Fort, Thane - MPCB","20-05-2025 21:00:00",19.222279,72.957979,CO,2,42,6
India,Maharashtra,Thane,"Upvan Fort, Thane - MPCB","20-05-2025 21:00:00",19.222279,72.957979,OZONE,1,19,9
India,Maharashtra,Ulhasnagar,"Sidhi Vinayak Nagar, Ulhasnagar - MPCB","20-05-2025 21:00:00",19.235581,73.159121,NO2,30,61,44
India,Maharashtra,Ulhasnagar,"Sidhi Vinayak Nagar, Ulhasnagar - MPCB","20-05-2025 21:00:00",19.235581,73.159121,SO2,6,22,14
India,Maharashtra,Ulhasnagar,"Sidhi Vinayak Nagar, Ulhasnagar - MPCB","20-05-2025 21:00:00",19.235581,73.159121,CO,26,59,37
India,Maharashtra,Virar,"Bolinj, Virar - MPCB","20-05-2025 21:00:00",19.4458210,72.7988231,OZONE,6,43,24
India,Manipur,Imphal,"DM College of Science, Imphal - Manipur PCB","20-05-2025 21:00:00",24.8207389,93.9423085,PM10,11,37,20
India,Manipur,Imphal,"DM College of Science, Imphal - Manipur PCB","20-05-2025 21:00:00",24.8207389,93.9423085,NH3,2,2,2
India,Manipur,Imphal,"DM College of Science, Imphal - Manipur PCB","20-05-2025 21:00:00",24.8207389,93.9423085,SO2,108,111,109
India,Odisha,Rairangpur,"Divisional Forest Office, Rairangpur - OSPCB","20-05-2025 21:00:00",22.265816,86.174829,CO,12,24,18
India,Odisha,Rourkela,"Fertilizer Township, Rourkela - OSPCB","20-05-2025 21:00:00",22.18972222,84.86277778,PM2.5,90,132,101
India,Odisha,Rourkela,"Fertilizer Township, Rourkela - OSPCB","20-05-2025 21:00:00",22.18972222,84.86277778,SO2,NA,NA,NA
India,Odisha,Rourkela,"Raghunathpali, Rourkela - OSPCB","20-05-2025 21:00:00",22.220833,84.809444,NO2,23,43,32
India,Odisha,Rourkela,"Raghunathpali, Rourkela - OSPCB","20-05-2025 21:00:00",22.220833,84.809444,NH3,4,7,5
India,Odisha,Rourkela,"Sector-2, Rourkela - OSPCB","20-05-2025 21:00:00",22.24500000,84.88111111,PM10,60,86,67
India,Odisha,Suakati,"OMC Colony, Suakati - OSPCB","20-05-2025 21:00:00",21.606865,85.510538,SO2,6,8,6
India,Odisha,Talcher,"Talcher Coalfields,Talcher - OSPCB","20-05-2025 21:00:00",20.9360711,85.1707021,NO2,21,44,30
India,Odisha,Bhubaneswar,"Patia, Bhubaneswar - OSPCB","20-05-2025 21:00:00",20.34652,85.81630,PM10,12,34,22
India,Odisha,Bhubaneswar,"Patia, Bhubaneswar - OSPCB","20-05-2025 21:00:00",20.34652,85.81630,SO2,5,7,6
India,Odisha,Bhubaneswar,"Patia, Bhubaneswar - OSPCB","20-05-2025 21:00:00",20.34652,85.81630,CO,56,64,58
India,Odisha,Bileipada,"Tata Township, Bileipada - OSPCB","20-05-2025 21:00:00",22.06156703,85.47409613,OZONE,10,18,14
India,Odisha,Brajrajnagar,"GM Office, Brajrajnagar - OSPCB","20-05-2025 21:00:00",21.8004996,83.8396977,SO2,11,12,11
India,Odisha,Brajrajnagar,"GM Office, Brajrajnagar - OSPCB","20-05-2025 21:00:00",21.8004996,83.8396977,OZONE,7,60,30
India,Mizoram,Aizawl,"Sikulpuikawn, Aizawl - Mizoram PCB","20-05-2025 21:00:00",23.7176342,92.7192841,CO,3,3,3
India,Mizoram,Aizawl,"Sikulpuikawn, Aizawl - Mizoram PCB","20-05-2025 21:00:00",23.7176342,92.7192841,OZONE,1,4,1
India,Nagaland,Kohima,"PWD Juction, Kohima - NPCB","20-05-2025 21:00:00",25.6635413,94.0989878,OZONE,9,19,12
India,Odisha,Angul,"Hakimapada, Angul - OSPCB","20-05-2025 21:00:00",20.832874,85.104082,PM2.5,5,58,17
India,Odisha,Angul,"Hakimapada, Angul - OSPCB","20-05-2025 21:00:00",20.832874,85.104082,PM10,23,108,57
India,Odisha,Cuttack,"CDA Area, Cuttack - OSPCB","20-05-2025 21:00:00","20.48891     ","85.84768     ",NO2,6,28,14
India,Odisha,Keonjhar,"Jagamohanpur, Keonjhar - OSPCB","20-05-2025 21:00:00",21.643900,85.599355,NH3,4,4,4
India,Odisha,Keonjhar,"Jagamohanpur, Keonjhar - OSPCB","20-05-2025 21:00:00",21.643900,85.599355,CO,16,100,33
India,Odisha,Rairangpur,"Divisional Forest Office, Rairangpur - OSPCB","20-05-2025 21:00:00",22.265816,86.174829,PM2.5,18,43,28
India,Odisha,Rairangpur,"Divisional Forest Office, Rairangpur - OSPCB","20-05-2025 21:00:00",22.265816,86.174829,PM10,32,64,43
India,Punjab,Ludhiana,"Punjab Agricultural University, Ludhiana - PPCB","20-05-2025 21:00:00",30.9028,75.8086,OZONE,13,51,20
India,Punjab,"Mandi Gobindgarh","RIMT University, Mandi Gobindgarh - PPCB","20-05-2025 21:00:00",30.649961,76.331442,NO2,26,26,26
India,Punjab,"Mandi Gobindgarh","RIMT University, Mandi Gobindgarh - PPCB","20-05-2025 21:00:00",30.649961,76.331442,OZONE,47,50,48
India,Punjab,Patiala,"Model Town, Patiala - PPCB","20-05-2025 21:00:00",30.349388,76.366642,PM10,114,175,138
India,Manipur,Imphal,"DM College of Science, Imphal - Manipur PCB","20-05-2025 21:00:00",24.8207389,93.9423085,OZONE,2,5,4
India,Meghalaya,Shillong,"JN Stadium, Shillong - Meghalaya PCB","20-05-2025 21:00:00",25.5803419,91.8942571,OZONE,1,9,3
India,Mizoram,Aizawl,"Sikulpuikawn, Aizawl - Mizoram PCB","20-05-2025 21:00:00",23.7176342,92.7192841,PM2.5,NA,NA,NA
India,Odisha,Balasore,"Kalidaspur, Balasore - OSPCB","20-05-2025 21:00:00",21.51161,86.89088,SO2,6,8,7
India,Odisha,Baripada,"Meher Colony, Baripada - OSPCB","20-05-2025 21:00:00",21.941841,86.728318,PM2.5,4,14,5
India,Odisha,Bhubaneswar,"Lingraj Mandir, Bhubaneswar - OSPCB","20-05-2025 21:00:00",20.240790,85.836784,NH3,2,4,3
India,Odisha,Tensa,"Barsua Iron Ore Mines, Tensa - OSPCB","20-05-2025 21:00:00",21.869985,85.167016,PM2.5,15,20,18
India,Odisha,Tensa,"Barsua Iron Ore Mines, Tensa - OSPCB","20-05-2025 21:00:00",21.869985,85.167016,CO,13,28,23
India,Rajasthan,Barmer,"Railway Colony, Barmer - RSPCB","20-05-2025 21:00:00",25.747299,71.393989,PM10,61,123,85
India,Rajasthan,Barmer,"Railway Colony, Barmer - RSPCB","20-05-2025 21:00:00",25.747299,71.393989,NO2,1,28,6
India,Rajasthan,Bharatpur,"Krishna Nagar, Bharatpur - RSPCB","20-05-2025 21:00:00",27.215415,77.50873,NO2,11,50,27
India,Rajasthan,Bhilwara,"Pratap Nagar, Bhilwara - RSPCB","20-05-2025 21:00:00",25.339605,74.618883,PM10,29,72,46
India,Rajasthan,Bhilwara,"Pratap Nagar, Bhilwara - RSPCB","20-05-2025 21:00:00",25.339605,74.618883,NO2,2,23,9
India,Rajasthan,Bhilwara,"Pratap Nagar, Bhilwara - RSPCB","20-05-2025 21:00:00",25.339605,74.618883,OZONE,29,65,57
India,Rajasthan,Bhiwadi,"RIICO Ind. Area III, Bhiwadi - RSPCB","20-05-2025 21:00:00",28.194909,76.862296,NH3,9,16,11
India,Rajasthan,Bhiwadi,"RIICO Ind. Area III, Bhiwadi - RSPCB","20-05-2025 21:00:00",28.194909,76.862296,SO2,7,13,10
India,Rajasthan,Bhiwadi,"Vasundhara Nagar_UIT, Bhiwadi - RSPCB","20-05-2025 21:00:00",28.207266,76.829265,PM10,117,164,140
India,Rajasthan,Bikaner,"MM Ground, Bikaner - RSPCB","20-05-2025 21:00:00",28.018792,73.292658,PM2.5,15,60,35
India,Rajasthan,Bikaner,"MM Ground, Bikaner - RSPCB","20-05-2025 21:00:00",28.018792,73.292658,NO2,8,66,15
India,Rajasthan,Bikaner,"MM Ground, Bikaner - RSPCB","20-05-2025 21:00:00",28.018792,73.292658,NH3,3,6,5
India,Rajasthan,Bundi,"New Colony, Bundi - RSPCB","20-05-2025 21:00:00",25.435774,75.644272,SO2,5,9,7
India,Rajasthan,Bundi,"New Colony, Bundi - RSPCB","20-05-2025 21:00:00",25.435774,75.644272,CO,14,26,19
India,Rajasthan,Chittorgarh,"Shastri Nagar, Chittorgarh - RSPCB","20-05-2025 21:00:00",24.892047,74.623527,PM2.5,12,43,29
India,Rajasthan,Chittorgarh,"Shastri Nagar, Chittorgarh - RSPCB","20-05-2025 21:00:00",24.892047,74.623527,NO2,10,28,18
India,Rajasthan,Churu,"Subash Chowk, Churu - RSPCB","20-05-2025 21:00:00",28.296139,74.961696,PM10,43,202,111
India,Rajasthan,Churu,"Subash Chowk, Churu - RSPCB","20-05-2025 21:00:00",28.296139,74.961696,NO2,8,26,12
India,Rajasthan,Churu,"Subash Chowk, Churu - RSPCB","20-05-2025 21:00:00",28.296139,74.961696,NH3,3,5,4
India,Rajasthan,Jhalawar,"Rajlaxmi Nagar, Jhalawar - RSPCB","20-05-2025 21:00:00",24.588397,76.172782,PM10,27,68,47
India,Rajasthan,Jhalawar,"Rajlaxmi Nagar, Jhalawar - RSPCB","20-05-2025 21:00:00",24.588397,76.172782,NO2,13,60,36
India,Rajasthan,Jhalawar,"Rajlaxmi Nagar, Jhalawar - RSPCB","20-05-2025 21:00:00",24.588397,76.172782,SO2,6,15,12
India,Rajasthan,Jhunjhunu,"Indra Nagar, Jhunjhunu - RSPCB","20-05-2025 21:00:00",28.108988,75.386577,PM2.5,26,72,47
India,Rajasthan,Jhunjhunu,"Indra Nagar, Jhunjhunu - RSPCB","20-05-2025 21:00:00",28.108988,75.386577,SO2,3,6,4
India,Rajasthan,Jodhpur,"Collectorate, Jodhpur - RSPCB","20-05-2025 21:00:00",26.268249,73.0193853,PM2.5,16,88,50
India,Rajasthan,Jodhpur,"Collectorate, Jodhpur - RSPCB","20-05-2025 21:00:00",26.268249,73.0193853,PM10,30,126,59
India,Rajasthan,Jodhpur,"Collectorate, Jodhpur - RSPCB","20-05-2025 21:00:00",26.268249,73.0193853,NH3,2,7,3
India,Rajasthan,Jodhpur,"Digari Kalan, Jodhpur - RSPCB","20-05-2025 21:00:00",26.295810,73.082283,SO2,2,7,5
India,Rajasthan,Alwar,"Moti Doongri, Alwar - RSPCB","20-05-2025 21:00:00",27.554793,76.611536,PM2.5,37,121,82
India,Rajasthan,Alwar,"Moti Doongri, Alwar - RSPCB","20-05-2025 21:00:00",27.554793,76.611536,CO,28,100,63
India,Rajasthan,Banswara,"Rati Talai, Banswara - RSPCB","20-05-2025 21:00:00",23.555190,74.440010,PM10,14,100,50
India,Rajasthan,Banswara,"Rati Talai, Banswara - RSPCB","20-05-2025 21:00:00",23.555190,74.440010,SO2,7,11,9
India,Rajasthan,Baran,"Bamboliya, Baran - RSPCB","20-05-2025 21:00:00",25.106006,76.469948,NO2,9,26,15
India,Rajasthan,Baran,"Bamboliya, Baran - RSPCB","20-05-2025 21:00:00",25.106006,76.469948,CO,12,43,27
India,Rajasthan,Kota,"Dhanmandi, Kota - RSPCB","20-05-2025 21:00:00",25.164090,75.858137,NH3,2,29,7
India,Rajasthan,Kota,"Shrinath Puram, Kota - RSPCB","20-05-2025 21:00:00",25.14389,75.821256,NH3,NA,NA,NA
India,Rajasthan,Nagaur,"Karni Colony, Nagaur - RSPCB","20-05-2025 21:00:00",27.213494,73.734444,CO,8,18,11
India,Rajasthan,Pali,"Indira Colony Vistar, Pali - RSPCB","20-05-2025 21:00:00",25.771061," 73.340227",PM2.5,28,134,62
India,Rajasthan,Jaipur,"Sector-2 Murlipura, Jaipur - RSPCB","20-05-2025 21:00:00",26.960669,75.771817,PM2.5,45,304,113
India,Rajasthan,Jaipur,"Sector-2 Murlipura, Jaipur - RSPCB","20-05-2025 21:00:00",26.960669,75.771817,CO,12,106,24
India,Rajasthan,Jaipur,"Shastri Nagar, Jaipur - RSPCB","20-05-2025 21:00:00",26.9502929,75.730943,PM10,NA,NA,NA
India,Rajasthan,Jaipur,"Shastri Nagar, Jaipur - RSPCB","20-05-2025 21:00:00",26.9502929,75.730943,NO2,NA,NA,NA
India,Rajasthan,Jalore,"Mudtra Sili, Jalore - RSPCB","20-05-2025 21:00:00",25.344694,72.626208,PM10,66,109,82
India,Rajasthan,Jodhpur,"Jhalamand, Jodhpur - RSPCB","20-05-2025 21:00:00",26.215415,73.070156,PM10,46,279,82
India,Rajasthan,Jodhpur,"Mandor, Jodhpur - RSPCB","20-05-2025 21:00:00",26.358805,73.047444,PM2.5,13,34,22
India,Rajasthan,Jodhpur,"Mandor, Jodhpur - RSPCB","20-05-2025 21:00:00",26.358805,73.047444,OZONE,34,72,60
India,Rajasthan,Jodhpur,"Samrat Ashok Udhyan, Jodhpur - RSPCB","20-05-2025 21:00:00",26.253384,72.976571,PM10,27,79,45
India,Rajasthan,Jodhpur,"Samrat Ashok Udhyan, Jodhpur - RSPCB","20-05-2025 21:00:00",26.253384,72.976571,CO,8,25,13
India,Rajasthan,Churu,"Subash Chowk, Churu - RSPCB","20-05-2025 21:00:00",28.296139,74.961696,SO2,3,6,4
India,Rajasthan,Churu,"Subash Chowk, Churu - RSPCB","20-05-2025 21:00:00",28.296139,74.961696,OZONE,47,87,79
India,Rajasthan,Hanumangarh,"Housing Board, Hanumangarh - RSPCB","20-05-2025 21:00:00",29.610750,74.283608,NO2,2,38,13
India,Rajasthan,Jaipur,"Mansarovar Sector-12, Jaipur - RSPCB","20-05-2025 21:00:00",26.843698,75.766894,SO2,1,7,4
India,Rajasthan,Jaipur,"RIICO Sitapura, Jaipur - RSPCB","20-05-2025 21:00:00",26.786682,75.827928,PM2.5,33,253,57
India,TamilNadu,Gummidipoondi,"Anthoni Pillai Nagar, Gummidipoondi - TNPCB","20-05-2025 21:00:00",13.4127,80.1081,NO2,3,22,11
India,TamilNadu,Gummidipoondi,"Anthoni Pillai Nagar, Gummidipoondi - TNPCB","20-05-2025 21:00:00",13.4127,80.1081,SO2,2,84,20
India,TamilNadu,Hosur,"SIPCOT Phase-1, Hosur - TNPCB","20-05-2025 21:00:00",12.746998,77.813811,PM2.5,41,129,76
India,TamilNadu,Hosur,"SIPCOT Phase-1, Hosur - TNPCB","20-05-2025 21:00:00",12.746998,77.813811,PM10,46,122,85
India,TamilNadu,Kanchipuram,"Kilambi, Kanchipuram - TNPCB","20-05-2025 21:00:00",12.864618,79.659968,PM2.5,35,85,59
India,TamilNadu,Kanchipuram,"Kilambi, Kanchipuram - TNPCB","20-05-2025 21:00:00",12.864618,79.659968,OZONE,9,91,56
India,TamilNadu,Madurai,"Uchapatti, Madurai - TNPCB","20-05-2025 21:00:00",9.865935,78.022669,PM10,10,64,24
India,TamilNadu,Madurai,"Uchapatti, Madurai - TNPCB","20-05-2025 21:00:00",9.865935,78.022669,OZONE,5,6,6
India,TamilNadu,Nagapattinam,"Velippalayam, Nagapattinam - TNPCB","20-05-2025 21:00:00",10.798548,79.838212,NO2,5,5,5
India,TamilNadu,Nagapattinam,"Velippalayam, Nagapattinam - TNPCB","20-05-2025 21:00:00",10.798548,79.838212,CO,12,23,13
India,TamilNadu,Namakkal,"Ponnusamy Nagar, Namakkal - TNPCB","20-05-2025 21:00:00",11.273992,78.163545,NO2,10,10,10
India,TamilNadu,Namakkal,"Ponnusamy Nagar, Namakkal - TNPCB","20-05-2025 21:00:00",11.273992,78.163545,NH3,3,3,3
India,TamilNadu,Perundurai,"SIPCOT Industrial Park, Perundurai - TNPCB","20-05-2025 21:00:00",11.258242,77.552761,PM2.5,1,50,19
India,TamilNadu,Perundurai,"SIPCOT Industrial Park, Perundurai - TNPCB","20-05-2025 21:00:00",11.258242,77.552761,SO2,15,17,16
India,Rajasthan,Pratapgarh,"Pragati Nagar, Pratapgarh - RSPCB","20-05-2025 21:00:00",24.041198,74.780702,NO2,13,39,20
India,Rajasthan,Pratapgarh,"Pragati Nagar, Pratapgarh - RSPCB","20-05-2025 21:00:00",24.041198,74.780702,CO,5,27,12
India,Rajasthan,Pratapgarh,"Pragati Nagar, Pratapgarh - RSPCB","20-05-2025 21:00:00",24.041198,74.780702,OZONE,33,56,45
India,Rajasthan,Rajsamand,"Dhoinda, Rajsamand - RSPCB","20-05-2025 21:00:00",25.036360,73.883502,NO2,17,62,32
India,Rajasthan,Rajsamand,"Dhoinda, Rajsamand - RSPCB","20-05-2025 21:00:00",25.036360,73.883502,SO2,NA,NA,NA
India,Rajasthan,Rajsamand,"Dhoinda, Rajsamand - RSPCB","20-05-2025 21:00:00",25.036360,73.883502,CO,10,25,14
India,Rajasthan,"Sawai Madhopur","Sahu Nagar, Sawai Madhopur - RSPCB","20-05-2025 21:00:00",26.031443,76.359327,NO2,6,23,14
India,Rajasthan,"Sawai Madhopur","Sahu Nagar, Sawai Madhopur - RSPCB","20-05-2025 21:00:00",26.031443,76.359327,NH3,8,15,11
India,Rajasthan,Tonk,"Shastri Nagar, Tonk - RSPCB","20-05-2025 21:00:00",26.159933,75.780517,CO,4,42,15
India,Rajasthan,Udaipur,"Ashok Nagar, Udaipur - RSPCB","20-05-2025 21:00:00",24.5886166,73.6321397,PM10,54,124,87
India,Rajasthan,Udaipur,"Ashok Nagar, Udaipur - RSPCB","20-05-2025 21:00:00",24.5886166,73.6321397,SO2,1,10,3
India,TamilNadu,Ariyalur,"Keelapalur, Ariyalur - TNPCB","20-05-2025 21:00:00",11.06825,79.07033,NH3,1,1,1
India,TamilNadu,Ariyalur,"Keelapalur, Ariyalur - TNPCB","20-05-2025 21:00:00",11.06825,79.07033,SO2,10,11,10
India,TamilNadu,Chengalpattu,"Crescent University, Chengalpattu - TNPCB","20-05-2025 21:00:00",12.8777316,80.0834807,PM10,NA,NA,NA
India,TamilNadu,Chengalpattu,"Crescent University, Chengalpattu - TNPCB","20-05-2025 21:00:00",12.8777316,80.0834807,NH3,NA,NA,NA
India,TamilNadu,Chengalpattu,"Crescent University, Chengalpattu - TNPCB","20-05-2025 21:00:00",12.8777316,80.0834807,OZONE,NA,NA,NA
India,TamilNadu,Chennai,"Alandur Bus Depot, Chennai - CPCB","20-05-2025 21:00:00",12.9099161,80.1076538,NH3,14,14,14
India,TamilNadu,Chennai,"Alandur Bus Depot, Chennai - CPCB","20-05-2025 21:00:00",12.9099161,80.1076538,CO,17,64,22
India,TamilNadu,Chennai,"Manali Village, Chennai - TNPCB","20-05-2025 21:00:00",13.1662,80.2584,NH3,1,1,1
India,Rajasthan,Sikar,"Radhakishan Pura, Sikar - RSPCB","20-05-2025 21:00:00",27.608912,75.153302,NO2,11,81,22
India,Rajasthan,Sirohi,"Vedhaynath Colony, Sirohi - RSPCB","20-05-2025 21:00:00",24.885261,72.857549,SO2,1,7,5
India,Rajasthan,"Sri Ganganagar","Old City, Sri Ganganagar - RSPCB","20-05-2025 21:00:00",29.931624,73.864511,PM2.5,37,113,55
India,Rajasthan,"Sri Ganganagar","Old City, Sri Ganganagar - RSPCB","20-05-2025 21:00:00",29.931624,73.864511,OZONE,2,95,43
India,TamilNadu,Coimbatore,"SIDCO Kurichi, Coimbatore - TNPCB","20-05-2025 21:00:00",10.942451,76.978996,PM10,3,38,27
India,TamilNadu,Cuddalore,"Semmandalam, Cuddalore - TNPCB","20-05-2025 21:00:00",11.7637683,79.7499835,NH3,1,2,2
India,TamilNadu,Dindigul,"Mendonsa Colony, Dindigul - TNPCB","20-05-2025 21:00:00",10.358535,77.984321,PM2.5,6,33,20
India,TamilNadu,Ramanathapuram,"Chalai Bazaar, Ramanathapuram - TNPCB","20-05-2025 21:00:00",9.36399,78.831977,OZONE,6,8,6
India,TamilNadu,Ranipet,"VOC Nagar_SIPCOT, Ranipet - TNPCB","20-05-2025 21:00:00",12.952707,79.30394,PM10,NA,NA,NA
India,TamilNadu,Chennai,"Perungudi, Chennai - TNPCB","20-05-2025 21:00:00",12.9533,80.2357,PM2.5,11,82,54
India,TamilNadu,Chennai,"Velachery Res. Area, Chennai - CPCB","20-05-2025 21:00:00",13.0052189,80.2398125,PM2.5,8,79,46
India,TamilNadu,Salem,"Sona College of Technology, Salem - TNPCB","20-05-2025 21:00:00",11.679111,78.125052,CO,42,44,43
India,TamilNadu,Salem,"Sona College of Technology, Salem - TNPCB","20-05-2025 21:00:00",11.679111,78.125052,OZONE,15,16,16
India,TamilNadu,Thanjavur,"Parisutham Nagar, Thanjavur - TNPCB","20-05-2025 21:00:00",10.7654824,79.1389968,PM10,NA,NA,NA
India,TamilNadu,Thoothukudi,"Meelavittan, Thoothukudi - TNPCB","20-05-2025 21:00:00","8.816428 ",78.099039,NO2,4,7,5
India,TamilNadu,Tiruchirappalli,"St Joseph College, Tiruchirappalli - TNPCB","20-05-2025 21:00:00",10.830158,78.691849,PM2.5,56,92,75
India,TamilNadu,Tiruchirappalli,"St Joseph College, Tiruchirappalli - TNPCB","20-05-2025 21:00:00",10.830158,78.691849,NO2,3,4,4
India,TamilNadu,Tiruchirappalli,"St Joseph College, Tiruchirappalli - TNPCB","20-05-2025 21:00:00",10.830158,78.691849,SO2,16,16,16
India,Uttar_Pradesh,Bareilly,"Civil Lines, Bareilly - UPPCB","20-05-2025 21:00:00",28.359581,79.414455,SO2,66,82,74
India,Uttar_Pradesh,Bulandshahr,"Yamunapuram, Bulandshahr - UPPCB","20-05-2025 21:00:00",28.406963,77.849831,PM10,76,151,116
India,Uttar_Pradesh,Firozabad,"Nagla Bhau, Firozabad - UPPCB","20-05-2025 21:00:00",27.168897,78.376960,PM10,53,90,70
India,Uttar_Pradesh,Firozabad,"Nagla Bhau, Firozabad - UPPCB","20-05-2025 21:00:00",27.168897,78.376960,SO2,23,34,26
India,Uttar_Pradesh,Firozabad,"Nagla Bhau, Firozabad - UPPCB","20-05-2025 21:00:00",27.168897,78.376960,OZONE,12,16,12
India,Uttar_Pradesh,Firozabad,"Vibhab Nagar, Firozabad - UPPCB","20-05-2025 21:00:00",27.1594,78.3953,PM10,61,124,90
India,Telangana,Hyderabad,"Bollaram Industrial Area, Hyderabad - TSPCB","20-05-2025 21:00:00",17.540891,78.358528,OZONE,44,95,80
India,Telangana,Hyderabad,"ECIL Kapra, Hyderabad - TSPCB","20-05-2025 21:00:00",17.470431,78.566959,NO2,4,16,10
India,Telangana,Hyderabad,"ICRISAT Patancheru, Hyderabad - TSPCB","20-05-2025 21:00:00",17.518400,78.278777,NH3,1,21,2
India,Telangana,Hyderabad,"ICRISAT Patancheru, Hyderabad - TSPCB","20-05-2025 21:00:00",17.518400,78.278777,SO2,5,19,14
India,Telangana,Hyderabad,"IDA Pashamylaram, Hyderabad - TSPCB","20-05-2025 21:00:00",17.5316895,78.218939,PM2.5,22,98,46
India,Telangana,Hyderabad,"IDA Pashamylaram, Hyderabad - TSPCB","20-05-2025 21:00:00",17.5316895,78.218939,NO2,23,44,30
India,Uttar_Pradesh,Agra,"Manoharpur, Agra - UPPCB","20-05-2025 21:00:00",27.23711,78.01936,PM10,66,128,99
India,Uttar_Pradesh,Agra,"Manoharpur, Agra - UPPCB","20-05-2025 21:00:00",27.23711,78.01936,OZONE,1,6,2
India,Uttar_Pradesh,Agra,"Rohta, Agra - UPPCB","20-05-2025 21:00:00",27.106972,78.000111,NH3,NA,NA,NA
India,Uttar_Pradesh,Agra,"Rohta, Agra - UPPCB","20-05-2025 21:00:00",27.106972,78.000111,SO2,NA,NA,NA
India,Uttar_Pradesh,Agra,"Rohta, Agra - UPPCB","20-05-2025 21:00:00",27.106972,78.000111,OZONE,NA,NA,NA
India,Uttar_Pradesh,Agra,"Sanjay Palace, Agra - UPPCB","20-05-2025 21:00:00",27.19865833,78.00598056,PM10,83,156,121
India,Uttar_Pradesh,Agra,"Sanjay Palace, Agra - UPPCB","20-05-2025 21:00:00",27.19865833,78.00598056,SO2,2,10,6
India,TamilNadu,Tirunelveli,"Municipal Corporation Office, Tirunelveli - TNPCB","20-05-2025 21:00:00",8.728442,77.6962,CO,21,42,32
India,TamilNadu,Vellore,"Vasanthapuram, Vellore - TNPCB","20-05-2025 21:00:00",12.909494,79.131861,NH3,1,4,2
India,TamilNadu,Vellore,"Vasanthapuram, Vellore - TNPCB","20-05-2025 21:00:00",12.909494,79.131861,OZONE,10,47,31
India,TamilNadu,Virudhunagar,"Collectorate Office, Virudhunagar - TNPCB","20-05-2025 21:00:00",9.559382,77.948828,NO2,19,20,19
India,Telangana,Hyderabad,"Somajiguda, Hyderabad - TSPCB","20-05-2025 21:00:00",17.417094,78.457437,PM10,82,99,92
India,Telangana,Hyderabad,"Zoo Park, Hyderabad - TSPCB","20-05-2025 21:00:00",17.349694,78.451437,NH3,1,2,1
India,Tripura,Agartala,"Bardowali, Agartala - Tripura SPCB","20-05-2025 21:00:00",23.8175497,91.2726974,OZONE,1,191,56
India,Telangana,Hyderabad,"Kokapet, Hyderabad - TSPCB","20-05-2025 21:00:00",17.393559,78.339194,PM2.5,46,51,48
India,Telangana,Hyderabad,"Kokapet, Hyderabad - TSPCB","20-05-2025 21:00:00",17.393559,78.339194,CO,26,48,40
India,Telangana,Hyderabad,"Kompally Municipal Office, Hyderabad - TSPCB","20-05-2025 21:00:00",17.544899,78.486949,PM2.5,50,58,52
India,Telangana,Hyderabad,"Nacharam_TSIIC IALA, Hyderabad - TSPCB","20-05-2025 21:00:00",17.429398,78.569354,PM2.5,54,58,56
India,Telangana,Hyderabad,"Nacharam_TSIIC IALA, Hyderabad - TSPCB","20-05-2025 21:00:00",17.429398,78.569354,SO2,15,20,17
India,Telangana,Hyderabad,"Ramachandrapuram, Hyderabad - TSPCB","20-05-2025 21:00:00",17.528544,78.286195,NH3,5,6,6
India,Telangana,Hyderabad,"Ramachandrapuram, Hyderabad - TSPCB","20-05-2025 21:00:00",17.528544,78.286195,CO,16,30,30
India,Uttar_Pradesh,Agra,"Shahjahan Garden, Agra - UPPCB","20-05-2025 21:00:00",27.169338,78.03582,OZONE,14,58,45
India,Uttar_Pradesh,Agra,"Shastripuram, Agra - UPPCB","20-05-2025 21:00:00",27.19862,77.92066,PM2.5,NA,NA,NA
India,Uttar_Pradesh,Agra,"Shastripuram, Agra - UPPCB","20-05-2025 21:00:00",27.19862,77.92066,OZONE,1,307,74
India,Uttar_Pradesh,Lucknow,"Kukrail Picnic Spot-1, Lucknow - UPPCB","20-05-2025 21:00:00",26.90723,80.98579,NO2,22,23,23
India,Uttar_Pradesh,Lucknow,"Kukrail Picnic Spot-1, Lucknow - UPPCB","20-05-2025 21:00:00",26.90723,80.98579,SO2,17,18,17
India,Uttar_Pradesh,Lucknow,"Lalbagh, Lucknow - CPCB","20-05-2025 21:00:00",26.8458805,80.9365541,PM2.5,38,122,69
India,Uttar_Pradesh,Lucknow,"Lalbagh, Lucknow - CPCB","20-05-2025 21:00:00",26.8458805,80.9365541,PM10,52,151,96
India,Uttar_Pradesh,Lucknow,"Lalbagh, Lucknow - CPCB","20-05-2025 21:00:00",26.8458805,80.9365541,CO,8,101,52
India,Uttar_Pradesh,Lucknow,"Talkatora District Industries Center, Lucknow - CPCB","20-05-2025 21:00:00",26.83399722,80.8917361,NO2,31,48,38
India,Uttar_Pradesh,Meerut,"Ganga Nagar, Meerut - UPPCB","20-05-2025 21:00:00",28.999264,77.7590354,PM2.5,33,87,59
India,Uttar_Pradesh,Meerut,"Ganga Nagar, Meerut - UPPCB","20-05-2025 21:00:00",28.999264,77.7590354,NO2,5,29,13
India,Uttar_Pradesh,Meerut,"Ganga Nagar, Meerut - UPPCB","20-05-2025 21:00:00",28.999264,77.7590354,SO2,12,21,16
India,Uttar_Pradesh,Meerut,"Jai Bhim Nagar, Meerut - UPPCB","20-05-2025 21:00:00",28.9535882,77.7622941,NH3,11,41,18
India,Uttar_Pradesh,Kanpur,"Nehru Nagar, Kanpur - UPPCB","20-05-2025 21:00:00",26.4703136,80.3229863,OZONE,29,87,53
India,Uttar_Pradesh,Khurja,"Kalindi Kunj, Khurja - UPPCB","20-05-2025 21:00:00",28.2348927,77.8683002,PM2.5,46,312,96
India,Uttar_Pradesh,Khurja,"Kalindi Kunj, Khurja - UPPCB","20-05-2025 21:00:00",28.2348927,77.8683002,NO2,3,4,3
India,Uttar_Pradesh,Lucknow,"B R Ambedkar University, Lucknow - UPPCB","20-05-2025 21:00:00",26.766433,80.927299,NO2,11,12,12
India,Uttar_Pradesh,Lucknow,"Gomti Nagar, Lucknow - UPPCB","20-05-2025 21:00:00",26.868120,81.005119,SO2,9,12,10
India,Uttar_Pradesh,Lucknow,"Kendriya Vidyalaya, Lucknow - CPCB","20-05-2025 21:00:00",26.906111,80.948222,PM10,68,162,96
India,Uttar_Pradesh,Lucknow,"Kukrail Picnic Spot-1, Lucknow - UPPCB","20-05-2025 21:00:00",26.90723,80.98579,PM2.5,17,51,30
India,Uttar_Pradesh,Ghaziabad,"Indirapuram, Ghaziabad - UPPCB","20-05-2025 21:00:00",28.646233,77.358075,PM10,90,188,134
India,Uttar_Pradesh,Ghaziabad,"Indirapuram, Ghaziabad - UPPCB","20-05-2025 21:00:00",28.646233,77.358075,NO2,10,38,23
India,Uttar_Pradesh,Ghaziabad,"Indirapuram, Ghaziabad - UPPCB","20-05-2025 21:00:00",28.646233,77.358075,NH3,5,13,9
India,Uttar_Pradesh,Ghaziabad,"Indirapuram, Ghaziabad - UPPCB","20-05-2025 21:00:00",28.646233,77.358075,SO2,7,18,13
India,Uttar_Pradesh,Ghaziabad,"Loni, Ghaziabad - UPPCB","20-05-2025 21:00:00",28.757294,77.278792,PM10,85,191,135
India,Uttar_Pradesh,Ghaziabad,"Loni, Ghaziabad - UPPCB","20-05-2025 21:00:00",28.757294,77.278792,SO2,12,30,19
India,Uttar_Pradesh,Ghaziabad,"Sanjay Nagar, Ghaziabad - UPPCB","20-05-2025 21:00:00",28.685382,77.453839,NO2,27,108,46
India,Uttar_Pradesh,Ghaziabad,"Sanjay Nagar, Ghaziabad - UPPCB","20-05-2025 21:00:00",28.685382,77.453839,CO,31,102,62
India,Uttar_Pradesh,Moradabad,"Kashiram Nagar, Moradabad - UPPCB","20-05-2025 21:00:00",28.849399,78.742362,NO2,21,32,25
India,Uttar_Pradesh,Moradabad,"Transport Nagar, Moradabad - UPPCB","20-05-2025 21:00:00",28.802625,78.753728,PM2.5,NA,NA,NA
India,Uttar_Pradesh,Moradabad,"Transport Nagar, Moradabad - UPPCB","20-05-2025 21:00:00",28.802625,78.753728,NO2,27,27,27
India,Uttar_Pradesh,Moradabad,"Transport Nagar, Moradabad - UPPCB","20-05-2025 21:00:00",28.802625,78.753728,OZONE,48,79,64
India,Uttar_Pradesh,Muzaffarnagar,"New Mandi, Muzaffarnagar - UPPCB","20-05-2025 21:00:00",29.4723508,77.7194031,PM10,92,372,167
India,Uttar_Pradesh,Muzaffarnagar,"New Mandi, Muzaffarnagar - UPPCB","20-05-2025 21:00:00",29.4723508,77.7194031,NO2,21,72,34
India,Uttar_Pradesh,Muzaffarnagar,"New Mandi, Muzaffarnagar - UPPCB","20-05-2025 21:00:00",29.4723508,77.7194031,OZONE,12,51,36
India,Uttar_Pradesh,Moradabad,"Buddhi Vihar, Moradabad - UPPCB","20-05-2025 21:00:00",28.83526,78.74460,SO2,NA,NA,NA
India,Uttar_Pradesh,Moradabad,"Eco Herbal Park, Moradabad - UPPCB","20-05-2025 21:00:00",28.840739,78.697531,PM10,41,158,80
India,Uttar_Pradesh,Moradabad,"Eco Herbal Park, Moradabad - UPPCB","20-05-2025 21:00:00",28.840739,78.697531,NO2,15,47,20
India,Uttar_Pradesh,Moradabad,"Employment Office, Moradabad - UPPCB","20-05-2025 21:00:00",28.88528,78.73880,NO2,15,16,16
India,Uttar_Pradesh,Kanpur,"FTI Kidwai Nagar, Kanpur - UPPCB","20-05-2025 21:00:00",26.428282,80.327067,CO,25,38,28
India,Uttar_Pradesh,Kanpur,"NSI Kalyanpur, Kanpur - UPPCB","20-05-2025 21:00:00",26.509954,80.249612,NH3,2,2,2
India,Uttar_Pradesh,Kanpur,"Nehru Nagar, Kanpur - UPPCB","20-05-2025 21:00:00",26.4703136,80.3229863,SO2,11,21,13
India,Uttar_Pradesh,"Greater Noida","Knowledge Park - III, Greater Noida - UPPCB","20-05-2025 21:00:00",28.47272,77.482000,NO2,15,65,33
India,Uttar_Pradesh,"Greater Noida","Knowledge Park - V, Greater Noida - UPPCB","20-05-2025 21:00:00",28.557054,77.453663,NO2,27,105,53
India,Uttar_Pradesh,Meerut,"Pallavpuram Phase 2, Meerut - UPPCB","20-05-2025 21:00:00",29.063510,77.709723,PM2.5,35,80,55
India,Uttar_Pradesh,Meerut,"Pallavpuram Phase 2, Meerut - UPPCB","20-05-2025 21:00:00",29.063510,77.709723,NH3,6,15,10
India,Uttar_Pradesh,Meerut,"Pallavpuram Phase 2, Meerut - UPPCB","20-05-2025 21:00:00",29.063510,77.709723,CO,4,57,32
India,Uttar_Pradesh,Ghaziabad,"Vasundhara, Ghaziabad - UPPCB","20-05-2025 21:00:00",28.6603346,77.3572563,CO,45,86,63
India,Uttar_Pradesh,Ghaziabad,"Vasundhara, Ghaziabad - UPPCB","20-05-2025 21:00:00",28.6603346,77.3572563,OZONE,15,175,137
India,West_Bengal,Durgapur,"PCBL Residential Complex, Durgapur - WBPCB","20-05-2025 21:00:00",23.5087640,87.3544400,PM10,15,81,47
India,West_Bengal,Durgapur,"PCBL Residential Complex, Durgapur - WBPCB","20-05-2025 21:00:00",23.5087640,87.3544400,NO2,7,39,18
India,West_Bengal,Durgapur,"PCBL Residential Complex, Durgapur - WBPCB","20-05-2025 21:00:00",23.5087640,87.3544400,SO2,5,5,5
India,West_Bengal,Haldia,"Priyambada Housing Estate, Haldia - WBPCB","20-05-2025 21:00:00",22.06047,88.109737,OZONE,13,24,19
India,West_Bengal,Howrah,"Belur Math, Howrah - WBPCB","20-05-2025 21:00:00",22.629801,88.352017,PM2.5,4,24,12
India,West_Bengal,Howrah,"Belur Math, Howrah - WBPCB","20-05-2025 21:00:00",22.629801,88.352017,NO2,30,34,33
India,West_Bengal,Howrah,"Belur Math, Howrah - WBPCB","20-05-2025 21:00:00",22.629801,88.352017,SO2,7,13,10
India,West_Bengal,Howrah,"Belur Math, Howrah - WBPCB","20-05-2025 21:00:00",22.629801,88.352017,CO,7,19,11
India,West_Bengal,Howrah,"Belur Math, Howrah - WBPCB","20-05-2025 21:00:00",22.629801,88.352017,OZONE,18,36,26
India,West_Bengal,Howrah,"Botanical Garden, Howrah - WBPCB","20-05-2025 21:00:00",22.554954,88.292568,PM2.5,6,31,16
India,West_Bengal,Howrah,"Botanical Garden, Howrah - WBPCB","20-05-2025 21:00:00",22.554954,88.292568,NH3,1,2,2
India,West_Bengal,Howrah,"Botanical Garden, Howrah - WBPCB","20-05-2025 21:00:00",22.554954,88.292568,SO2,8,11,9
India,Uttar_Pradesh,Vrindavan,"Omex Eternity, Vrindavan - UPPCB","20-05-2025 21:00:00",27.5714090,77.6557570,PM10,44,93,66
India,Uttar_Pradesh,Vrindavan,"Omex Eternity, Vrindavan - UPPCB","20-05-2025 21:00:00",27.5714090,77.6557570,NH3,2,2,2
India,Uttarakhand,Dehradun,"Doon University, Dehradun - UKPCB","20-05-2025 21:00:00",30.269444,78.044167,NO2,1,3,2
India,Uttarakhand,Dehradun,"Doon University, Dehradun - UKPCB","20-05-2025 21:00:00",30.269444,78.044167,CO,6,13,9
India,Uttarakhand,Kashipur,"Govt. Girls Inter College, Kashipur - UKPCB","20-05-2025 21:00:00",29.2124114,78.9611753,CO,NA,NA,NA
India,West_Bengal,Asansol,"Asansol Court Area, Asansol - WBPCB","20-05-2025 21:00:00",23.685297,86.945968,PM2.5,23,51,36
India,West_Bengal,Asansol,"Asansol Court Area, Asansol - WBPCB","20-05-2025 21:00:00",23.685297,86.945968,SO2,4,14,8
India,West_Bengal,Asansol,"Evelyn Lodge, Asansol - WBPCB","20-05-2025 21:00:00",23.6979360,86.9443950,NO2,6,38,11
India,West_Bengal,Asansol,"Evelyn Lodge, Asansol - WBPCB","20-05-2025 21:00:00",23.6979360,86.9443950,NH3,1,2,1
India,West_Bengal,Asansol,"Mahabir Colliery, Asansol - WBPCB","20-05-2025 21:00:00",23.6181830,87.1057180,NH3,14,21,17
India,West_Bengal,Asansol,"Trivenidevi Bhalotia College, Asansol - WBPCB","20-05-2025 21:00:00",23.616515,87.119133,PM2.5,12,36,24
India,West_Bengal,Barrackpore,"SVSPA Campus, Barrackpore - WBPCB","20-05-2025 21:00:00",22.7605581,88.3617589,PM2.5,7,34,20
India,West_Bengal,Barrackpore,"SVSPA Campus, Barrackpore - WBPCB","20-05-2025 21:00:00",22.7605581,88.3617589,NO2,6,22,12
India,Uttar_Pradesh,Noida,"Sector - 125, Noida - UPPCB","20-05-2025 21:00:00",28.5447608,77.3231257,SO2,8,16,12
India,Uttar_Pradesh,Noida,"Sector - 62, Noida - IMD","20-05-2025 21:00:00",28.6245479,77.3577104,OZONE,21,141,46
India,Uttar_Pradesh,Noida,"Sector-116, Noida - UPPCB","20-05-2025 21:00:00",28.569230,77.393848,PM10,95,230,152
India,Uttar_Pradesh,Noida,"Sector-116, Noida - UPPCB","20-05-2025 21:00:00",28.569230,77.393848,NO2,NA,NA,NA
India,Uttar_Pradesh,Prayagraj,"Jhunsi, Prayagraj - UPPCB","20-05-2025 21:00:00",25.425602,81.917152,PM2.5,28,60,46
India,West_Bengal,Kolkata,"Fort William, Kolkata - WBPCB","20-05-2025 21:00:00",22.556640,88.342674,PM10,15,35,25
India,West_Bengal,Kolkata,"Jadavpur, Kolkata - WBPCB","20-05-2025 21:00:00",22.49929,88.36917,PM2.5,36,68,49
India,West_Bengal,Kolkata,"Jadavpur, Kolkata - WBPCB","20-05-2025 21:00:00",22.49929,88.36917,SO2,4,18,7
India,West_Bengal,Kolkata,"Rabindra Sarobar, Kolkata - WBPCB","20-05-2025 21:00:00",22.51106,88.35142,PM10,32,57,39
India,West_Bengal,Kolkata,"Rabindra Sarobar, Kolkata - WBPCB","20-05-2025 21:00:00",22.51106,88.35142,CO,8,16,13
India,West_Bengal,Howrah,"Dasnagar, Howrah - WBPCB","20-05-2025 21:00:00",22.6025571,88.3105664,PM10,21,56,35
India,West_Bengal,Howrah,"Ghusuri, Howrah - WBPCB","20-05-2025 21:00:00",22.611968,88.347422,NO2,21,27,23
India,West_Bengal,Howrah,"Padmapukur, Howrah - WBPCB","20-05-2025 21:00:00",22.5687319,88.2797276,NO2,8,12,11
India,West_Bengal,Kolkata,"Bidhannagar, Kolkata - WBPCB","20-05-2025 21:00:00",22.58157048,88.41002457,NH3,5,6,6
India,Uttar_Pradesh,Prayagraj,"Nagar Nigam, Prayagraj - UPPCB","20-05-2025 21:00:00","25.44919916 ","81.82735986 ",NH3,6,9,7
India,Uttar_Pradesh,Prayagraj,"Nagar Nigam, Prayagraj - UPPCB","20-05-2025 21:00:00","25.44919916 ","81.82735986 ",SO2,33,70,45
India,Uttar_Pradesh,Varanasi,"Bhelupur, Varanasi - UPPCB","20-05-2025 21:00:00",25.301778,82.996789,PM2.5,NA,NA,NA
India,Uttar_Pradesh,Varanasi,"Maldahiya, Varanasi - UPPCB","20-05-2025 21:00:00",25.32393,82.99687,NH3,1,1,1
India,Uttar_Pradesh,Prayagraj,"Motilal Nehru NIT, Prayagraj - UPPCB","20-05-2025 21:00:00",25.494,81.863,OZONE,1,111,82
India,Uttar_Pradesh,Prayagraj,"Motilal Nehru NIT, Prayagraj - UPPCB","20-05-2025 21:00:00",25.494,81.863,NH3,4,6,5
India,Andhra_Pradesh,Rajamahendravaram,"Anand Kala Kshetram, Rajamahendravaram - APPCB","20-05-2025 21:00:00",16.9872867,81.7363176,OZONE,5,12,9
India,Andhra_Pradesh,Tirumala,"Toll Gate, Tirumala - APPCB (Formerly known as Tirumala, Tirupati - APPCB)","20-05-2025 21:00:00",13.67,79.35,PM2.5,18,35,26
India,Andhra_Pradesh,Tirumala,"Toll Gate, Tirumala - APPCB (Formerly known as Tirumala, Tirupati - APPCB)","20-05-2025 21:00:00",13.67,79.35,NH3,1,2,1
India,Andhra_Pradesh,Tirumala,"Toll Gate, Tirumala - APPCB (Formerly known as Tirumala, Tirupati - APPCB)","20-05-2025 21:00:00",13.67,79.35,SO2,1,8,5
India,Andhra_Pradesh,Tirupati,"Vaikuntapuram, Tirupati - APPCB","20-05-2025 21:00:00",13.615387,79.409230,PM2.5,NA,NA,NA
India,Andhra_Pradesh,Tirupati,"Vaikuntapuram, Tirupati - APPCB","20-05-2025 21:00:00",13.615387,79.409230,NO2,NA,NA,NA
India,Andhra_Pradesh,Tirupati,"Vaikuntapuram, Tirupati - APPCB","20-05-2025 21:00:00",13.615387,79.409230,NH3,NA,NA,NA
India,Andhra_Pradesh,Vijayawada,"HB Colony, Vijayawada - APPCB","20-05-2025 21:00:00",16.536107,80.594233,PM2.5,58,70,62
India,Andhra_Pradesh,Vijayawada,"HB Colony, Vijayawada - APPCB","20-05-2025 21:00:00",16.536107,80.594233,CO,20,39,33
India,Andhra_Pradesh,Vijayawada,"Kanuru, Vijayawada - APPCB","20-05-2025 21:00:00",16.486692,80.699436,NH3,3,5,3
India,Andhra_Pradesh,Vijayawada,"Kanuru, Vijayawada - APPCB","20-05-2025 21:00:00",16.486692,80.699436,OZONE,20,37,34
India,Assam,Silchar,"Tarapur, Silchar - PCBA","20-05-2025 21:00:00",24.82827,92.79525,OZONE,1,4,2
India,Assam,Sivasagar,"Girls College, Sivasagar - PCBA","20-05-2025 21:00:00",26.987634,94.636574,NO2,20,30,23
India,Assam,Sivasagar,"Girls College, Sivasagar - PCBA","20-05-2025 21:00:00",26.987634,94.636574,SO2,6,11,9
India,Bihar,Araria,"Kharahiya Basti, Araria - BSPCB","20-05-2025 21:00:00",26.146529,87.454184,PM2.5,NA,NA,NA
India,Bihar,Araria,"Kharahiya Basti, Araria - BSPCB","20-05-2025 21:00:00",26.146529,87.454184,NH3,5,6,5
India,Bihar,Araria,"Kharahiya Basti, Araria - BSPCB","20-05-2025 21:00:00",26.146529,87.454184,CO,50,69,62
India,Bihar,Araria,"Kharahiya Basti, Araria - BSPCB","20-05-2025 21:00:00",26.146529,87.454184,OZONE,6,12,9
India,Bihar,Arrah,"New DM Office, Arrah - BSPCB","20-05-2025 21:00:00",25.5626095,84.663264,SO2,NA,NA,NA
India,Bihar,Arrah,"New DM Office, Arrah - BSPCB","20-05-2025 21:00:00",25.5626095,84.663264,OZONE,5,28,15
India,Assam,Guwahati,"LGBI Airport, Guwahati - PCBA","20-05-2025 21:00:00",26.10887,91.589544,OZONE,14,22,19
India,Assam,Guwahati,"Pan Bazaar, Guwahati - PCBA","20-05-2025 21:00:00",26.187500,91.744194,CO,16,51,19
India,Assam,Nagaon,"Christianpatty, Nagaon - PCBA","20-05-2025 21:00:00",26.349082,92.68449,PM2.5,32,43,34
India,Assam,Nagaon,"Christianpatty, Nagaon - PCBA","20-05-2025 21:00:00",26.349082,92.68449,PM10,34,41,35
India,Assam,Nagaon,"Christianpatty, Nagaon - PCBA","20-05-2025 21:00:00",26.349082,92.68449,NO2,NA,NA,NA
India,Assam,Nalbari,"Bata Chowk, Nalbari - PCBA","20-05-2025 21:00:00",26.446912,91.439057,NO2,1,5,3
India,Assam,Nalbari,"Bata Chowk, Nalbari - PCBA","20-05-2025 21:00:00",26.446912,91.439057,CO,16,35,27
India,Assam,Nalbari,"Bata Chowk, Nalbari - PCBA","20-05-2025 21:00:00",26.446912,91.439057,OZONE,10,32,22
India,Bihar,"Bihar Sharif","D M Colony, Bihar Sharif - BSPCB","20-05-2025 21:00:00",25.204762,85.514960,PM10,NA,NA,NA
India,Bihar,"Bihar Sharif","D M Colony, Bihar Sharif - BSPCB","20-05-2025 21:00:00",25.204762,85.514960,NH3,NA,NA,NA
India,Bihar,"Bihar Sharif","D M Colony, Bihar Sharif - BSPCB","20-05-2025 21:00:00",25.204762,85.514960,SO2,8,10,9
India,Bihar,Buxar,"Charitra Van, Buxar - BSPCB","20-05-2025 21:00:00",25.567520,83.966379,NH3,3,4,4
India,Bihar,Chhapra,"Darshan Nagar, Chhapra - BSPCB","20-05-2025 21:00:00",25.7808257,84.7446768,CO,14,21,16
India,Bihar,Chhapra,"Darshan Nagar, Chhapra - BSPCB","20-05-2025 21:00:00",25.7808257,84.7446768,OZONE,6,37,16
India,Bihar,Gaya,"Kareemganj, Gaya - BSPCB","20-05-2025 21:00:00",24.792403,84.992416,OZONE,6,61,42
India,Andhra_Pradesh,Vijayawada,"Rajiv Gandhi Park, Vijayawada - APPCB","20-05-2025 21:00:00",16.509717,80.612222,NH3,3,5,4
India,Andhra_Pradesh,Vijayawada,"Rajiv Gandhi Park, Vijayawada - APPCB","20-05-2025 21:00:00",16.509717,80.612222,SO2,13,19,17
India,Andhra_Pradesh,Vijayawada,"Rajiv Nagar, Vijayawada - APPCB","20-05-2025 21:00:00",16.554731,80.649110,PM2.5,48,62,52
India,Andhra_Pradesh,Vijayawada,"Rajiv Nagar, Vijayawada - APPCB","20-05-2025 21:00:00",16.554731,80.649110,SO2,18,21,20
India,Andhra_Pradesh,Vijayawada,"Rajiv Nagar, Vijayawada - APPCB","20-05-2025 21:00:00",16.554731,80.649110,CO,25,38,28
India,Arunachal_Pradesh,Naharlagun,"Naharlagun, Naharlagun - APSPCB","20-05-2025 21:00:00",27.103358,93.679645,PM2.5,14,61,36
India,Bihar,Gaya,"SFTI Kusdihra, Gaya - BSPCB","20-05-2025 21:00:00",24.762518,84.982348,PM10,55,75,66
India,Bihar,Gaya,"SFTI Kusdihra, Gaya - BSPCB","20-05-2025 21:00:00",24.762518,84.982348,OZONE,6,54,44
India,Bihar,Hajipur,"Industrial Area, Hajipur - BSPCB","20-05-2025 21:00:00",25.697189,85.245900,PM10,36,91,56
India,Bihar,Hajipur,"Industrial Area, Hajipur - BSPCB","20-05-2025 21:00:00",25.697189,85.245900,NO2,4,41,18
India,Bihar,Kishanganj,"SDM Office_Khagra, Kishanganj - BSPCB","20-05-2025 21:00:00",26.0881305,87.93840336,PM10,3,65,29
India,Andhra_Pradesh,Amaravati,"Secretariat, Amaravati - APPCB","20-05-2025 21:00:00",16.5150833,80.5181667,NO2,32,42,36
India,Andhra_Pradesh,Chittoor,"Gangineni Cheruvu, Chittoor - APPCB","20-05-2025 21:00:00",13.204880,79.097889,PM2.5,42,201,80
India,Andhra_Pradesh,Chittoor,"Gangineni Cheruvu, Chittoor - APPCB","20-05-2025 21:00:00",13.204880,79.097889,PM10,38,124,67
India,Andhra_Pradesh,Rajamahendravaram,"Anand Kala Kshetram, Rajamahendravaram - APPCB","20-05-2025 21:00:00",16.9872867,81.7363176,PM2.5,3,22,12
India,Bihar,Begusarai,"Lohiyanagar, Begusarai - BSPCB","20-05-2025 21:00:00",25.42742023,86.13886079,SO2,36,38,37
India,Bihar,Begusarai,"Lohiyanagar, Begusarai - BSPCB","20-05-2025 21:00:00",25.42742023,86.13886079,OZONE,5,18,11
India,Bihar,Bhagalpur,"DM Office_Kachari Chowk, Bhagalpur - BSPCB","20-05-2025 21:00:00",25.251013,86.989001,OZONE,13,39,15
India,Bihar,Bhagalpur,"Mayaganj, Bhagalpur - BSPCB","20-05-2025 21:00:00",25.265194,87.012947,NO2,8,10,9
India,Assam,Guwahati,"IITG, Guwahati - PCBA","20-05-2025 21:00:00",26.2028636,91.70046436,PM2.5,10,84,30
India,Assam,Guwahati,"IITG, Guwahati - PCBA","20-05-2025 21:00:00",26.2028636,91.70046436,CO,6,13,6
India,"Andaman and Nicobar","Sri Vijaya Puram","Police Line, Sri Vijaya Puram - ANPCC","20-05-2025 21:00:00",11.654054,92.734055,CO,15,44,24
India,Bihar,Muzaffarpur,"Muzaffarpur Collectorate, Muzaffarpur - BSPCB","20-05-2025 21:00:00",26.1209,85.3647,OZONE,12,89,66
India,Bihar,Patna,"Govt. High School Shikarpur, Patna - BSPCB","20-05-2025 21:00:00",25.592539,85.227158,PM2.5,NA,NA,NA
India,Bihar,Patna,"Govt. High School Shikarpur, Patna - BSPCB","20-05-2025 21:00:00",25.592539,85.227158,PM10,NA,NA,NA
India,Bihar,Patna,"IGSC Planetarium Complex, Patna - BSPCB","20-05-2025 21:00:00",25.610369,85.132568,SO2,24,27,25
India,Bihar,Patna,"IGSC Planetarium Complex, Patna - BSPCB","20-05-2025 21:00:00",25.610369,85.132568,OZONE,56,61,59
India,Bihar,Patna,"Muradpur, Patna - BSPCB","20-05-2025 21:00:00",25.619651,85.147382,NH3,2,20,5
India,Bihar,Patna,"Muradpur, Patna - BSPCB","20-05-2025 21:00:00",25.619651,85.147382,OZONE,6,41,29
India,Bihar,Motihari,"Gandak Colony, Motihari - BSPCB","20-05-2025 21:00:00",26.63086,84.90051,PM10,16,71,32
India,Bihar,Munger,"Town Hall, Munger - BSPCB","20-05-2025 21:00:00",25.376776,86.471523,NH3,5,7,7
India,Bihar,Muzaffarpur,"Buddha Colony, Muzaffarpur - BSPCB","20-05-2025 21:00:00",26.11442,85.39813,PM2.5,21,40,28
India,Bihar,Muzaffarpur,"MIT-Daudpur Kothi, Muzaffarpur - BSPCB","20-05-2025 21:00:00",26.1403345,85.3650192,PM10,8,125,42
India,Bihar,Patna,"Samanpura, Patna - BSPCB","20-05-2025 21:00:00",25.596727,85.085624,PM2.5,45,92,67
India,Bihar,Purnia,"Mariam Nagar, Purnia - BSPCB","20-05-2025 21:00:00",25.366336,87.117468,PM2.5,NA,NA,NA
India,Bihar,Purnia,"Mariam Nagar, Purnia - BSPCB","20-05-2025 21:00:00",25.366336,87.117468,CO,33,54,46
India,Bihar,Rajgir,"Dangi Tola, Rajgir - BSPCB","20-05-2025 21:00:00",25.03280,85.41948,PM10,8,189,100
India,Bihar,Rajgir,"Dangi Tola, Rajgir - BSPCB","20-05-2025 21:00:00",25.03280,85.41948,NO2,8,11,9
India,Bihar,Samastipur,"DM Office_Kasipur, Samastipur - BSPCB","20-05-2025 21:00:00",25.859655,85.77944,PM2.5,NA,NA,NA
India,Bihar,Samastipur,"DM Office_Kasipur, Samastipur - BSPCB","20-05-2025 21:00:00",25.859655,85.77944,PM10,19,82,42
India,Bihar,Samastipur,"DM Office_Kasipur, Samastipur - BSPCB","20-05-2025 21:00:00",25.859655,85.77944,SO2,5,46,31
India,Bihar,Sasaram,"Dada Peer, Sasaram - BSPCB","20-05-2025 21:00:00",24.952822,84.002396,PM10,NA,NA,NA
India,Bihar,Sasaram,"Dada Peer, Sasaram - BSPCB","20-05-2025 21:00:00",24.952822,84.002396,OZONE,4,34,19
India,Chhattisgarh,Bhilai,"Hathkhoj, Bhilai - CECB","20-05-2025 21:00:00",21.224231,81.408350,PM10,NA,NA,NA
India,Chhattisgarh,Bilaspur,"Mangala, Bilaspur - NTPC","20-05-2025 21:00:00",22.08815,82.13737,CO,21,97,60
India,Chhattisgarh,Chhal,"Nawapara SECL Colony, Chhal - CECB","20-05-2025 21:00:00",22.118125,83.140608,PM2.5,10,66,29
India,Bihar,Siwan,"Chitragupta Nagar, Siwan - BSPCB","20-05-2025 21:00:00",26.2271665,84.3570427,SO2,1,10,6
India,Chandigarh,Chandigarh,"Sector 22, Chandigarh - CPCC","20-05-2025 21:00:00",30.735567,76.775714,PM2.5,70,187,117
India,Chandigarh,Chandigarh,"Sector 22, Chandigarh - CPCC","20-05-2025 21:00:00",30.735567,76.775714,SO2,9,51,19
India,Chandigarh,Chandigarh,"Sector 22, Chandigarh - CPCC","20-05-2025 21:00:00",30.735567,76.775714,OZONE,59,300,191
India,Chandigarh,Chandigarh,"Sector-53, Chandigarh - CPCC","20-05-2025 21:00:00",30.719859,76.738637,NO2,9,100,30
India,Chandigarh,Chandigarh,"Sector-53, Chandigarh - CPCC","20-05-2025 21:00:00",30.719859,76.738637,SO2,10,35,18
India,Chhattisgarh,Korba,"Rampur, Korba - CECB","20-05-2025 21:00:00",22.368195,82.746431,PM10,32,58,40
India,Chhattisgarh,Korba,"Rampur, Korba - CECB","20-05-2025 21:00:00",22.368195,82.746431,NO2,12,21,15
India,Delhi,Delhi,"Ashok Vihar, Delhi - DPCC","20-05-2025 21:00:00",28.695381,77.181665,OZONE,10,203,142
India,Delhi,Delhi,"Aya Nagar, Delhi - IMD","20-05-2025 21:00:00",28.4706914,77.1099364,PM10,143,384,249
India,Delhi,Delhi,"CRRI Mathura Road, Delhi - IMD","20-05-2025 21:00:00",28.5512005,77.2735737,CO,22,46,31
India,Delhi,Delhi,"Chandni Chowk, Delhi - IITM","20-05-2025 21:00:00",28.656756,77.227234,PM10,77,193,122
India,Delhi,Delhi,"Chandni Chowk, Delhi - IITM","20-05-2025 21:00:00",28.656756,77.227234,NO2,67,154,98
India,Delhi,Delhi,"Chandni Chowk, Delhi - IITM","20-05-2025 21:00:00",28.656756,77.227234,SO2,22,30,25
India,Delhi,Delhi,"ITO, Delhi - CPCB","20-05-2025 21:00:00",28.628624,77.241060,OZONE,16,32,24
India,Delhi,Delhi,"Jahangirpuri, Delhi - DPCC","20-05-2025 21:00:00",28.732820,77.170633,OZONE,5,195,131
India,Delhi,Delhi,"Jawaharlal Nehru Stadium, Delhi - DPCC","20-05-2025 21:00:00",28.580280,77.233829,NO2,34,114,56
India,Delhi,Delhi,"Lodhi Road, Delhi - IITM","20-05-2025 21:00:00",28.588333,77.221667,PM10,NA,NA,NA
India,Delhi,Delhi,"Lodhi Road, Delhi - IITM","20-05-2025 21:00:00",28.588333,77.221667,NO2,NA,NA,NA
India,Delhi,Delhi,"Lodhi Road, Delhi - IMD","20-05-2025 21:00:00",28.5918245,77.2273074,NO2,18,52,25
India,Chhattisgarh,Raipur,"AIIMS, Raipur - CECB","20-05-2025 21:00:00",21.258815,81.578979,NH3,7,7,7
India,Chhattisgarh,Raipur,"AIIMS, Raipur - CECB","20-05-2025 21:00:00",21.258815,81.578979,OZONE,5,46,24
India,Chhattisgarh,Raipur,"Bhatagaon New ISBT, Raipur - CECB","20-05-2025 21:00:00",21.219665,81.630094,NH3,2,2,2
India,Chhattisgarh,Raipur,"Krishak Nagar, Raipur - CECB","20-05-2025 21:00:00",21.237755,81.705301,OZONE,3,79,60
India,Chhattisgarh,Raipur,"Siltara Phase-II, Raipur - CECB","20-05-2025 21:00:00",21.371751,81.664929,NH3,3,3,3
India,Delhi,Delhi,"Alipur, Delhi - DPCC","20-05-2025 21:00:00",28.815329,77.153010,PM10,133,341,210
India,Delhi,Delhi,"Alipur, Delhi - DPCC","20-05-2025 21:00:00",28.815329,77.153010,OZONE,18,120,96
India,Delhi,Delhi,"Anand Vihar, Delhi - DPCC","20-05-2025 21:00:00",28.647622,77.3158090,PM2.5,78,233,149
India,Delhi,Delhi,"Anand Vihar, Delhi - DPCC","20-05-2025 21:00:00",28.647622,77.3158090,PM10,123,289,200
India,Delhi,Delhi,"Anand Vihar, Delhi - DPCC","20-05-2025 21:00:00",28.647622,77.3158090,SO2,17,34,25
India,Delhi,Delhi,"Major Dhyan Chand National Stadium, Delhi - DPCC","20-05-2025 21:00:00",28.611281,77.237738,NH3,21,27,23
India,Delhi,Delhi,"Major Dhyan Chand National Stadium, Delhi - DPCC","20-05-2025 21:00:00",28.611281,77.237738,CO,28,95,55
India,Delhi,Delhi,"Mundka, Delhi - DPCC","20-05-2025 21:00:00",28.684678,77.076574,NO2,20,82,39
India,Delhi,Delhi,"Mundka, Delhi - DPCC","20-05-2025 21:00:00",28.684678,77.076574,NH3,10,14,12
India,Delhi,Delhi,"Dr. Karni Singh Shooting Range, Delhi - DPCC","20-05-2025 21:00:00",28.498571,77.264840,NO2,38,65,50
India,Delhi,Delhi,"Dr. Karni Singh Shooting Range, Delhi - DPCC","20-05-2025 21:00:00",28.498571,77.264840,SO2,8,19,12
India,Delhi,Delhi,"Dr. Karni Singh Shooting Range, Delhi - DPCC","20-05-2025 21:00:00",28.498571,77.264840,CO,40,62,51
India,Delhi,Delhi,"Dr. Karni Singh Shooting Range, Delhi - DPCC","20-05-2025 21:00:00",28.498571,77.264840,OZONE,15,124,86
India,Delhi,Delhi,"Okhla Phase-2, Delhi - DPCC","20-05-2025 21:00:00",28.530785,77.271255,NH3,8,24,14
India,Delhi,Delhi,"Okhla Phase-2, Delhi - DPCC","20-05-2025 21:00:00",28.530785,77.271255,SO2,4,10,6
India,Delhi,Delhi,"Patparganj, Delhi - DPCC","20-05-2025 21:00:00",28.623763,77.287209,NH3,4,6,5
India,Delhi,Delhi,"Nehru Nagar, Delhi - DPCC","20-05-2025 21:00:00",28.567890,77.250515,SO2,16,29,23
India,Delhi,Delhi,"Nehru Nagar, Delhi - DPCC","20-05-2025 21:00:00",28.567890,77.250515,CO,2,32,14
India,Delhi,Delhi,"IHBAS, Dilshad Garden, Delhi - CPCB","20-05-2025 21:00:00",28.6811736,77.3025234,OZONE,6,23,17
India,Delhi,Delhi,"Sri Aurobindo Marg, Delhi - DPCC","20-05-2025 21:00:00",28.531346,77.190156,OZONE,3,132,88
India,Delhi,Delhi,"Vivek Vihar, Delhi - DPCC","20-05-2025 21:00:00",28.672342,77.315260,NO2,12,61,27
India,Delhi,Delhi,"Vivek Vihar, Delhi - DPCC","20-05-2025 21:00:00",28.672342,77.315260,SO2,10,42,16
India,Delhi,Delhi,"Wazirpur, Delhi - DPCC","20-05-2025 21:00:00",28.699793,77.165453,SO2,2,20,11
India,Gujarat,Ahmedabad,"Chandkheda, Ahmedabad - IITM","20-05-2025 21:00:00",23.107969,72.574648,PM10,41,167,99
India,Gujarat,Ahmedabad,"Chandkheda, Ahmedabad - IITM","20-05-2025 21:00:00",23.107969,72.574648,SO2,6,13,9
India,Gujarat,Ahmedabad,"Chandkheda, Ahmedabad - IITM","20-05-2025 21:00:00",23.107969,72.574648,CO,12,43,19
India,Gujarat,Ahmedabad,"Gyaspur, Ahmedabad - IITM","20-05-2025 21:00:00",22.977134,72.553024,NO2,11,100,34
India,Gujarat,Vatva,"Phase-4 GIDC, Vatva - GPCB","20-05-2025 21:00:00",22.969611,72.643500,PM2.5,32,63,40
India,"Himachal Pradesh",Baddi,"HIMUDA Complex Phase-1, Baddi - HPPCB","20-05-2025 21:00:00",30.943887,76.801991,PM2.5,80,297,139
India,"Himachal Pradesh",Baddi,"HIMUDA Complex Phase-1, Baddi - HPPCB","20-05-2025 21:00:00",30.943887,76.801991,PM10,119,208,165
India,Jammu_and_Kashmir,Srinagar,"Rajbagh, Srinagar - JKSPCB","20-05-2025 21:00:00",34.066206,74.819820,PM10,41,104,61
India,Jharkhand,Dhanbad,"Sardar Patel Nagar, Dhanbad - JSPCB","20-05-2025 21:00:00",23.80569,86.44268,PM2.5,1,324,58
India,Delhi,Delhi,"Shadipur, Delhi - CPCB","20-05-2025 21:00:00",28.6514781,77.1473105,PM10,119,355,185
India,Delhi,Delhi,"Shadipur, Delhi - CPCB","20-05-2025 21:00:00",28.6514781,77.1473105,SO2,9,54,32
India,Delhi,Delhi,"Sirifort, Delhi - CPCB","20-05-2025 21:00:00",28.5504249,77.2159377,PM2.5,6,276,188
India,Delhi,Delhi,"Sirifort, Delhi - CPCB","20-05-2025 21:00:00",28.5504249,77.2159377,NO2,49,50,50
India,Delhi,Delhi,"Sirifort, Delhi - CPCB","20-05-2025 21:00:00",28.5504249,77.2159377,NH3,12,18,14
India,Delhi,Delhi,"Sonia Vihar, Delhi - DPCC","20-05-2025 21:00:00",28.710508,77.249485,NH3,7,18,12
India,Delhi,Delhi,"Sri Aurobindo Marg, Delhi - DPCC","20-05-2025 21:00:00",28.531346,77.190156,NO2,17,108,45
India,Gujarat,Gandhinagar,"Sector-10, Gandhinagar - GPCB","20-05-2025 21:00:00",23.221714,72.654328,SO2,3,6,5
India,Gujarat,Nandesari,"GIDC, Nandesari - Nandesari Ind. Association","20-05-2025 21:00:00",22.410802,73.097923,PM2.5,24,203,57
India,Gujarat,Nandesari,"GIDC, Nandesari - Nandesari Ind. Association","20-05-2025 21:00:00",22.410802,73.097923,PM10,23,119,47
India,Gujarat,Surat,"Science Center, Surat - SMC","20-05-2025 21:00:00",21.170046,72.795405,CO,20,42,31
India,Gujarat,Vapi,"Phase-1 GIDC, Vapi - GPCB","20-05-2025 21:00:00",20.362421,72.918013,OZONE,2,2,2
India,Gujarat,Ahmedabad,"SVPI Airport Hansol, Ahmedabad - IITM","20-05-2025 21:00:00",23.076793,72.627874,SO2,2,15,6
India,Gujarat,Ahmedabad,"SVPI Airport Hansol, Ahmedabad - IITM","20-05-2025 21:00:00",23.076793,72.627874,OZONE,9,37,31
India,Gujarat,Ahmedabad,"Sardar Vallabhbhai Patel Stadium, Ahmedabad - IITM","20-05-2025 21:00:00",23.043070,72.562968,PM10,65,188,87
India,Gujarat,Ahmedabad,"Sardar Vallabhbhai Patel Stadium, Ahmedabad - IITM","20-05-2025 21:00:00",23.043070,72.562968,SO2,6,32,11
India,Gujarat,Ankleshwar,"GIDC, Ankleshwar - GPCB","20-05-2025 21:00:00",21.613267,73.010555,PM10,53,80,65
India,Gujarat,Ahmedabad,"Maninagar, Ahmedabad - GPCB","20-05-2025 21:00:00",23.002657,72.591912,PM2.5,23,84,49
India,Gujarat,Ahmedabad,"Rakhial, Ahmedabad - IITM","20-05-2025 21:00:00",23.016834,72.625775,PM10,23,106,46
India,Gujarat,Ahmedabad,"Rakhial, Ahmedabad - IITM","20-05-2025 21:00:00",23.016834,72.625775,NO2,12,166,40
India,Gujarat,Ahmedabad,"Rakhial, Ahmedabad - IITM","20-05-2025 21:00:00",23.016834,72.625775,NH3,1,14,3
India,Gujarat,Ahmedabad,"Rakhial, Ahmedabad - IITM","20-05-2025 21:00:00",23.016834,72.625775,CO,30,58,40
India,Jharkhand,Jorapokhar,"Tata Stadium, Jorapokhar - JSPCB","20-05-2025 21:00:00",23.707909,86.414670,NH3,NA,NA,NA
India,Karnataka,Belgaum,"Ramteerth Nagar, Belgaum - KSPCB","20-05-2025 21:00:00",15.888653,74.541751,PM2.5,9,33,22
India,Karnataka,Bengaluru,"BTM Layout, Bengaluru - CPCB","20-05-2025 21:00:00",12.9135218,77.5950804,PM2.5,23,26,24
India,Delhi,Delhi,"R K Puram, Delhi - DPCC","20-05-2025 21:00:00",28.563262,77.186937,SO2,4,100,16
India,Delhi,Delhi,"Rohini, Delhi - DPCC","20-05-2025 21:00:00",28.732528,77.119920,OZONE,9,110,73
India,Karnataka,Bengaluru,"Hombegowda Nagar, Bengaluru - KSPCB","20-05-2025 21:00:00",12.938539,77.590100,NO2,5,38,18
India,Karnataka,Bengaluru,"Jigani, Bengaluru - KSPCB","20-05-2025 21:00:00",12.7816279,77.6299145,OZONE,21,22,22
India,Karnataka,Bengaluru,"Kasturi Nagar, Bengaluru - KSPCB","20-05-2025 21:00:00",13.003872,77.664217,PM10,51,81,58
India,Karnataka,Bengaluru,"Kasturi Nagar, Bengaluru - KSPCB","20-05-2025 21:00:00",13.003872,77.664217,SO2,8,10,9
India,Karnataka,Bengaluru,"Peenya, Bengaluru - CPCB","20-05-2025 21:00:00",13.0270199,77.494094,PM2.5,30,71,50
India,Karnataka,Bengaluru,"RVCE-Mailasandra, Bengaluru - KSPCB","20-05-2025 21:00:00",12.921418,77.502466,PM2.5,NA,NA,NA
India,Karnataka,Bengaluru,"RVCE-Mailasandra, Bengaluru - KSPCB","20-05-2025 21:00:00",12.921418,77.502466,CO,26,46,31
India,Karnataka,Bengaluru,"RVCE-Mailasandra, Bengaluru - KSPCB","20-05-2025 21:00:00",12.921418,77.502466,OZONE,20,22,21
India,Karnataka,Bengaluru,"Sanegurava Halli, Bengaluru - KSPCB","20-05-2025 21:00:00",12.990328,77.5431385,CO,13,155,53
India,Karnataka,Bengaluru,"Shivapura_Peenya, Bengaluru - KSPCB","20-05-2025 21:00:00",13.0246342,77.5080115,PM10,NA,NA,NA
India,Karnataka,Kalaburagi,"Mahatma Basaveswar Colony, Kalaburgi - KSPCB","20-05-2025 21:00:00",17.336318,76.847397,CO,21,66,48
India,Karnataka,Madikeri,"Stuart Hill, Madikeri - KSPCB","20-05-2025 21:00:00",12.415911,75.735050,PM2.5,NA,NA,NA
India,Karnataka,Madikeri,"Stuart Hill, Madikeri - KSPCB","20-05-2025 21:00:00",12.415911,75.735050,PM10,NA,NA,NA
India,Karnataka,Mangalore,"Kadri, Mangalore - KSPCB","20-05-2025 21:00:00",12.889250,74.853000,PM2.5,29,65,42
India,Karnataka,Mangalore,"Kadri, Mangalore - KSPCB","20-05-2025 21:00:00",12.889250,74.853000,PM10,38,81,53
India,Karnataka,Mangalore,"Kadri, Mangalore - KSPCB","20-05-2025 21:00:00",12.889250,74.853000,NO2,5,33,8
India,Karnataka,Mangalore,"Kadri, Mangalore - KSPCB","20-05-2025 21:00:00",12.889250,74.853000,CO,4,84,42
India,Karnataka,Mysuru,"Hebbal 1st Stage, Mysuru - KSPCB","20-05-2025 21:00:00",12.21041,76.37376,NH3,3,6,5
India,Karnataka,Davanagere,"Devaraj Urs Badavane, Davanagere - KSPCB","20-05-2025 21:00:00",14.475800,75.905200,PM10,5,44,16
India,Karnataka,Davanagere,"Devaraj Urs Badavane, Davanagere - KSPCB","20-05-2025 21:00:00",14.475800,75.905200,OZONE,18,19,19
India,Karnataka,Hubballi,"Lingaraj Nagar, Hubballi - KSPCB","20-05-2025 21:00:00",15.3714823,75.1160168,NO2,7,11,8
India,Karnataka,Hubballi,"Lingaraj Nagar, Hubballi - KSPCB","20-05-2025 21:00:00",15.3714823,75.1160168,NH3,1,2,1
India,Karnataka,Kalaburagi,"Lal Bahadur Shastri Nagar, Kalaburagi - KSPCB","20-05-2025 21:00:00",17.321993,76.822628,PM2.5,18,47,37
India,Karnataka,Kalaburagi,"Lal Bahadur Shastri Nagar, Kalaburagi - KSPCB","20-05-2025 21:00:00",17.321993,76.822628,CO,28,30,28
India,Karnataka,Kalaburagi,"Mahatma Basaveswar Colony, Kalaburgi - KSPCB","20-05-2025 21:00:00",17.336318,76.847397,PM2.5,14,53,26
India,Karnataka,Bengaluru,"Shivapura_Peenya, Bengaluru - KSPCB","20-05-2025 21:00:00",13.0246342,77.5080115,OZONE,19,21,20
India,Karnataka,Bengaluru,"Silk Board, Bengaluru - KSPCB","20-05-2025 21:00:00",12.917348,77.622813,PM10,11,63,32
India,Karnataka,Chamarajanagar,"Urban, Chamarajanagar - KSPCB","20-05-2025 21:00:00",11.55358,76.55521,NH3,1,3,2
India,Karnataka,Chikkaballapur,"Chikkaballapur Rural, Chikkaballapur - KSPCB","20-05-2025 21:00:00",13.428828,77.731418,PM10,15,59,37
India,Karnataka,Chikkamagaluru,"Kalyana Nagara, Chikkamagaluru - KSPCB","20-05-2025 21:00:00",13.328028,75.797056,NH3,NA,NA,NA
India,"Madhya Pradesh",Bhopal,"Paryavaran Parisar, Bhopal - MPPCB","20-05-2025 21:00:00",23.210494,77.425409,NH3,2,3,3
India,"Madhya Pradesh",Bhopal,"T T Nagar, Bhopal - MPPCB","20-05-2025 21:00:00",23.233584,77.400574,PM2.5,21,42,30
India,"Madhya Pradesh",Bhopal,"T T Nagar, Bhopal - MPPCB","20-05-2025 21:00:00",23.233584,77.400574,NO2,21,34,26
India,"Madhya Pradesh",Bhopal,"T T Nagar, Bhopal - MPPCB","20-05-2025 21:00:00",23.233584,77.400574,NH3,2,3,2
India,"Madhya Pradesh",Damoh,"Shrivastav Colony, Damoh - MPPCB","20-05-2025 21:00:00",23.81748678,79.446246,CO,20,26,23
India,"Madhya Pradesh",Dewas,"Bhopal Chauraha, Dewas - MPPCB","20-05-2025 21:00:00",22.9682591,76.064118,NO2,NA,NA,NA
India,"Madhya Pradesh",Gwalior,"City Center, Gwalior - MPPCB","20-05-2025 21:00:00",26.203442,78.193251,CO,82,131,116
India,"Madhya Pradesh",Gwalior,"Maharaj Bada, Gwalior - MPPCB","20-05-2025 21:00:00",26.200388,78.147714,NO2,13,39,20
India,"Madhya Pradesh",Gwalior,"Maharaj Bada, Gwalior - MPPCB","20-05-2025 21:00:00",26.200388,78.147714,OZONE,11,95,73
India,"Madhya Pradesh",Indore,"Chhoti Gwaltoli, Indore - MPPCB","20-05-2025 21:00:00",22.4310,75.5213,PM2.5,42,99,62
India,"Madhya Pradesh",Indore,"Chhoti Gwaltoli, Indore - MPPCB","20-05-2025 21:00:00",22.4310,75.5213,SO2,10,45,18
India,"Madhya Pradesh",Indore,"Chhoti Gwaltoli, Indore - MPPCB","20-05-2025 21:00:00",22.4310,75.5213,CO,20,79,50
India,Kerala,Thiruvananthapuram,"Plammoodu, Thiruvananthapuram - Kerala PCB","20-05-2025 21:00:00",8.5149093,76.9435879,SO2,9,30,19
India,"Madhya Pradesh",Bhopal,"Idgah Hills, Bhopal - MPPCB","20-05-2025 21:00:00",23.264759,77.381568,NH3,4,9,6
India,"Madhya Pradesh",Bhopal,"Idgah Hills, Bhopal - MPPCB","20-05-2025 21:00:00",23.264759,77.381568,OZONE,31,95,77
India,"Madhya Pradesh",Bhopal,"Paryavaran Parisar, Bhopal - MPPCB","20-05-2025 21:00:00",23.210494,77.425409,PM2.5,27,55,39
India,Karnataka,Ramanagara,"Vijay Nagar, Ramanagara - KSPCB","20-05-2025 21:00:00",12.733409,77.298051,CO,4,36,14
India,Karnataka,Shivamogga,"Vinoba Nagara, Shivamogga - KSPCB","20-05-2025 21:00:00",13.940000,75.555917,PM10,30,40,34
India,Karnataka,Shivamogga,"Vinoba Nagara, Shivamogga - KSPCB","20-05-2025 21:00:00",13.940000,75.555917,NH3,2,4,3
India,Karnataka,Vijayapura,"Ibrahimpur, Vijayapura - KSPCB","20-05-2025 21:00:00",16.802639,75.722694,PM2.5,30,38,37
India,Karnataka,Vijayapura,"Ibrahimpur, Vijayapura - KSPCB","20-05-2025 21:00:00",16.802639,75.722694,NH3,1,2,1
India,Karnataka,Bengaluru,"Hombegowda Nagar, Bengaluru - KSPCB","20-05-2025 21:00:00",12.938539,77.590100,SO2,6,13,10
India,Karnataka,Bengaluru,"Jayanagar 5th Block, Bengaluru - KSPCB","20-05-2025 21:00:00",12.920984,77.584908,NO2,14,14,14
India,Karnataka,Bengaluru,"Jayanagar 5th Block, Bengaluru - KSPCB","20-05-2025 21:00:00",12.920984,77.584908,SO2,11,21,13
India,Karnataka,Bengaluru,"Jigani, Bengaluru - KSPCB","20-05-2025 21:00:00",12.7816279,77.6299145,PM10,33,234,77
India,"Madhya Pradesh",Pithampur,"Sector-2 Industrial Area, Pithampur - MPPCB","20-05-2025 21:00:00",22.624758,75.675238,SO2,12,30,18
India,"Madhya Pradesh",Sagar,"Civil Lines, Sagar - MPPCB","20-05-2025 21:00:00",23.838586,78.759431,PM2.5,11,59,37
India,"Madhya Pradesh",Sagar,"Civil Lines, Sagar - MPPCB","20-05-2025 21:00:00",23.838586,78.759431,SO2,1,14,5
India,"Madhya Pradesh",Sagar,"Civil Lines, Sagar - MPPCB","20-05-2025 21:00:00",23.838586,78.759431,CO,7,86,58
India,"Madhya Pradesh",Sagar,"Deen Dayal Nagar, Sagar - MPPCB","20-05-2025 21:00:00",23.8640158,78.80289321,PM10,20,108,47
India,Maharashtra,Ahmednagar,"Tarakpur, Ahmednagar - MPCB","20-05-2025 21:00:00",19.10122,74.73339,NO2,NA,NA,NA
India,Maharashtra,Akola,"Ramdaspeth, Akola - MPCB","20-05-2025 21:00:00",20.719516,77.000253,NO2,14,19,15
India,Maharashtra,Amravati,"Shivneri Colony, Amravati - MPCB","20-05-2025 21:00:00",20.9402359,77.7895248,PM10,51,110,73
India,Maharashtra,Amravati,"Shivneri Colony, Amravati - MPCB","20-05-2025 21:00:00",20.9402359,77.7895248,NO2,4,26,9
India,Maharashtra,Amravati,"Shivneri Colony, Amravati - MPCB","20-05-2025 21:00:00",20.9402359,77.7895248,NH3,3,4,3
India,Maharashtra,Amravati,"Shri Shivaji Science College, Amaravati - MPCB","20-05-2025 21:00:00",20.939198,77.765701,SO2,1,4,2
India,Maharashtra,Amravati,"Shri Shivaji Science College, Amaravati - MPCB","20-05-2025 21:00:00",20.939198,77.765701,OZONE,2,91,82
India,Maharashtra,Aurangabad,"More Chowk Waluj, Aurangabad - MPCB","20-05-2025 21:00:00",19.8389439,75.244448,PM10,38,77,55
India,Maharashtra,Aurangabad,"Rachnakar Colony, Aurangabad - MPCB","20-05-2025 21:00:00",19.863756,75.321188,PM2.5,18,68,46
India,Maharashtra,Aurangabad,"Rachnakar Colony, Aurangabad - MPCB","20-05-2025 21:00:00",19.863756,75.321188,PM10,38,128,63
India,"Madhya Pradesh",Indore,"Residency Area, Indore - IMC","20-05-2025 21:00:00",22.7084,75.8815,CO,14,16,15
India,"Madhya Pradesh",Indore,"Vijay Nagar Scheme-78, Indore - Glenmark","20-05-2025 21:00:00",22.76726,75.88710,PM10,38,41,40
India,"Madhya Pradesh",Jabalpur,"Govindh Bhavan Colony, Jabalpur - JMC","20-05-2025 21:00:00",23.163174,79.973061,NH3,1,1,1
India,"Madhya Pradesh",Jabalpur,"Govindh Bhavan Colony, Jabalpur - JMC","20-05-2025 21:00:00",23.163174,79.973061,CO,14,30,19
India,"Madhya Pradesh",Jabalpur,"Gupteshwar, Jabalpur - JMC","20-05-2025 21:00:00",23.142888,79.916147,SO2,6,10,9
India,"Madhya Pradesh",Jabalpur,"Gupteshwar, Jabalpur - JMC","20-05-2025 21:00:00",23.142888,79.916147,OZONE,36,91,78
India,"Madhya Pradesh",Jabalpur,"Marhatal, Jabalpur - MPPCB","20-05-2025 21:00:00",23.168606,79.932247,PM2.5,NA,NA,NA
India,"Madhya Pradesh",Jabalpur,"Suhagi, Jabalpur - JMC","20-05-2025 21:00:00",23.218135,79.957770,SO2,11,16,15
India,"Madhya Pradesh",Jabalpur,"Suhagi, Jabalpur - JMC","20-05-2025 21:00:00",23.218135,79.957770,OZONE,21,82,71
